<?xml version="1.0" ?>
<GraphData>
  
  
  <Cities>
    
    
    <City id="1" name="Elbasan" country="AL" lat="41.11138" lng="20.08224" pop="100903"/>
    
    
    <City id="2" name="Vlore" country="AL" lat="40.4696" lng="19.48379" pop="115261"/>
    
    
    <City id="3" name="Tirana" country="AL" lat="41.32744" lng="19.81866" pop="418495"/>
    
    
    <City id="4" name="Shkoder" country="AL" lat="42.06828" lng="19.51258" pop="95553"/>
    
    
    <City id="5" name="Durres" country="AL" lat="41.32355" lng="19.45469" pop="195920"/>
    
    
    <City id="6" name="Vienna" country="AT" lat="48.20849" lng="16.37208" pop="1691468"/>
    
    
    <City id="7" name="Simmering" country="AT" lat="48.18333" lng="16.43333" pop="101420"/>
    
    
    <City id="8" name="Salzburg" country="AT" lat="47.79941" lng="13.04399" pop="157245"/>
    
    
    <City id="9" name="Ottakring" country="AT" lat="48.21667" lng="16.3" pop="104627"/>
    
    
    <City id="10" name="Meidling" country="AT" lat="48.16667" lng="16.33333" pop="97624"/>
    
    
    <City id="11" name="Linz" country="AT" lat="48.30639" lng="14.28611" pop="204846"/>
    
    
    <City id="12" name="Klagenfurt am Woerthersee" country="AT" lat="46.62472" lng="14.30528" pop="100316"/>
    
    
    <City id="13" name="Innsbruck" country="AT" lat="47.26266" lng="11.39454" pop="132493"/>
    
    
    <City id="14" name="Penzing" country="AT" lat="48.2" lng="16.26667" pop="98176"/>
    
    
    <City id="15" name="Graz" country="AT" lat="47.06733" lng="15.44197" pop="303270"/>
    
    
    <City id="16" name="Floridsdorf" country="AT" lat="48.25" lng="16.4" pop="162779"/>
    
    
    <City id="17" name="Favoriten" country="AT" lat="48.16116" lng="16.38233" pop="201882"/>
    
    
    <City id="18" name="Donaustadt" country="AT" lat="48.2333" lng="16.46002" pop="187007"/>
    
    
    <City id="19" name="Landstrasse" country="AT" lat="48.2019" lng="16.38792" pop="98389"/>
    
    
    <City id="20" name="Brigittenau" country="AT" lat="48.24275" lng="16.37551" pop="86967"/>
    
    
    <City id="21" name="Zenica" country="BA" lat="44.20169" lng="17.90397" pop="164423"/>
    
    
    <City id="22" name="Tuzla" country="BA" lat="44.53842" lng="18.66709" pop="142486"/>
    
    
    <City id="23" name="Sarajevo" country="BA" lat="43.84864" lng="18.35644" pop="696731"/>
    
    
    <City id="24" name="Mostar" country="BA" lat="43.34333" lng="17.80806" pop="104518"/>
    
    
    <City id="25" name="Banja Luka" country="BA" lat="44.77879" lng="17.20629" pop="221106"/>
    
    
    <City id="26" name="Uccle" country="BE" lat="50.80225" lng="4.33943" pop="82929"/>
    
    
    <City id="27" name="Schaerbeek" country="BE" lat="50.86935" lng="4.37737" pop="132761"/>
    
    
    <City id="28" name="Namur" country="BE" lat="50.4669" lng="4.86746" pop="110939"/>
    
    
    <City id="29" name="Mons" country="BE" lat="50.45413" lng="3.95229" pop="95299"/>
    
    
    <City id="30" name="Molenbeek-Saint-Jean" country="BE" lat="50.8499" lng="4.31248" pop="97037"/>
    
    
    <City id="31" name="Liege" country="BE" lat="50.63373" lng="5.56749" pop="195278"/>
    
    
    <City id="32" name="Leuven" country="BE" lat="50.87959" lng="4.70093" pop="101032"/>
    
    
    <City id="33" name="Ixelles" country="BE" lat="50.83333" lng="4.36667" pop="86671"/>
    
    
    <City id="34" name="Gent" country="BE" lat="51.05" lng="3.71667" pop="265086"/>
    
    
    <City id="35" name="Charleroi" country="BE" lat="50.41136" lng="4.44448" pop="200132"/>
    
    
    <City id="36" name="Brussels" country="BE" lat="50.85045" lng="4.34878" pop="1019022"/>
    
    
    <City id="37" name="Brugge" country="BE" lat="51.20892" lng="3.22424" pop="118509"/>
    
    
    <City id="38" name="Antwerpen" country="BE" lat="51.22047" lng="4.40026" pop="529247"/>
    
    
    <City id="39" name="Anderlecht" country="BE" lat="50.83619" lng="4.31454" pop="160553"/>
    
    
    <City id="40" name="Varna" country="BG" lat="43.21912" lng="27.91024" pop="318737"/>
    
    
    <City id="41" name="Stara Zagora" country="BG" lat="42.43205" lng="25.64262" pop="121582"/>
    
    
    <City id="42" name="Sofia" country="BG" lat="42.69751" lng="23.32415" pop="1152556"/>
    
    
    <City id="43" name="Sliven" country="BG" lat="42.68607" lng="26.32558" pop="83740"/>
    
    
    <City id="44" name="Ruse" country="BG" lat="43.84872" lng="25.9534" pop="121168"/>
    
    
    <City id="45" name="Plovdiv" country="BG" lat="42.15387" lng="24.75001" pop="329489"/>
    
    
    <City id="46" name="Pleven" country="BG" lat="43.41791" lng="24.61666" pop="90209"/>
    
    
    <City id="47" name="Pernik" country="BG" lat="42.59671" lng="23.03318" pop="82467"/>
    
    
    <City id="48" name="Burgas" country="BG" lat="42.50651" lng="27.46886" pop="210646"/>
    
    
    <City id="49" name="Vitebsk" country="BY" lat="55.1904" lng="30.2049" pop="358395"/>
    
    
    <City id="50" name="Soligorsk" country="BY" lat="52.78981" lng="27.53583" pop="97818"/>
    
    
    <City id="51" name="Pinsk" country="BY" lat="52.12153" lng="26.06726" pop="124295"/>
    
    
    <City id="52" name="Orsha" country="BY" lat="54.51362" lng="30.40365" pop="102759"/>
    
    
    <City id="53" name="Novopolotsk" country="BY" lat="55.52618" lng="28.59308" pop="95717"/>
    
    
    <City id="54" name="Minsk" country="BY" lat="53.90019" lng="27.56653" pop="1742124"/>
    
    
    <City id="55" name="Mazyr" country="BY" lat="52.04162" lng="29.21631" pop="105152"/>
    
    
    <City id="56" name="Maladziecna" country="BY" lat="54.3167" lng="26.854" pop="89068"/>
    
    
    <City id="57" name="Mahilyow" country="BY" lat="53.90876" lng="30.34044" pop="353110"/>
    
    
    <City id="58" name="Lida" country="BY" lat="53.88333" lng="25.29972" pop="103916"/>
    
    
    <City id="59" name="Hrodna" country="BY" lat="53.6758" lng="23.82887" pop="361115"/>
    
    
    <City id="60" name="Homyel'" country="BY" lat="52.4345" lng="30.9754" pop="501102"/>
    
    
    <City id="61" name="Brest" country="BY" lat="52.10894" lng="23.71749" pop="344470"/>
    
    
    <City id="62" name="Barysaw" country="BY" lat="54.2279" lng="28.505" pop="135696"/>
    
    
    <City id="63" name="Baranovichi" country="BY" lat="53.13253" lng="26.00774" pop="171361"/>
    
    
    <City id="64" name="Bobruysk" country="BY" lat="53.14636" lng="29.20552" pop="207351"/>
    
    
    <City id="65" name="Zuerich" country="CH" lat="47.36667" lng="8.55" pop="415367"/>
    
    
    <City id="66" name="Winterthur" country="CH" lat="47.50564" lng="8.72413" pop="111840"/>
    
    
    <City id="67" name="Luzern" country="CH" lat="47.05048" lng="8.30635" pop="81691"/>
    
    
    <City id="68" name="Lausanne" country="CH" lat="46.516" lng="6.63282" pop="139111"/>
    
    
    <City id="69" name="Geneve" country="CH" lat="46.20222" lng="6.14569" pop="201741"/>
    
    
    <City id="70" name="Bern" country="CH" lat="46.94809" lng="7.44744" pop="121631"/>
    
    
    <City id="71" name="Basel" country="CH" lat="47.55839" lng="7.57327" pop="177595"/>
    
    
    <City id="72" name="Nicosia" country="CY" lat="35.17284" lng="33.35397" pop="200452"/>
    
    
    <City id="73" name="Limassol" country="CY" lat="34.68406" lng="33.03794" pop="154000"/>
    
    
    <City id="74" name="Usti nad Labem" country="CZ" lat="50.6607" lng="14.03227" pop="90378"/>
    
    
    <City id="75" name="Prague" country="CZ" lat="50.08804" lng="14.42076" pop="1165581"/>
    
    
    <City id="76" name="Pilsen" country="CZ" lat="49.74747" lng="13.37759" pop="168733"/>
    
    
    <City id="77" name="Pardubice" country="CZ" lat="50.04075" lng="15.77659" pop="88520"/>
    
    
    <City id="78" name="Ostrava" country="CZ" lat="49.83465" lng="18.28204" pop="279791"/>
    
    
    <City id="79" name="Olomouc" country="CZ" lat="49.59552" lng="17.25175" pop="99496"/>
    
    
    <City id="80" name="Liberec" country="CZ" lat="50.76711" lng="15.05619" pop="102951"/>
    
    
    <City id="81" name="Hradec Kralove" country="CZ" lat="50.20923" lng="15.83277" pop="90596"/>
    
    
    <City id="82" name="Havirov" country="CZ" lat="49.77984" lng="18.43688" pop="82768"/>
    
    
    <City id="83" name="Ceske Budejovice" country="CZ" lat="48.97447" lng="14.47434" pop="93426"/>
    
    
    <City id="84" name="Brno" country="CZ" lat="49.19522" lng="16.60796" pop="379466"/>
    
    
    <City id="85" name="Brno stred" country="CZ" lat="49.19343" lng="16.60712" pop="86685"/>
    
    
    <City id="86" name="Zwickau" country="DE" lat="50.72724" lng="12.48839" pop="98796"/>
    
    
    <City id="87" name="Wuerzburg" country="DE" lat="49.79391" lng="9.95121" pop="133731"/>
    
    
    <City id="88" name="Wuppertal" country="DE" lat="51.25627" lng="7.14816" pop="360797"/>
    
    
    <City id="89" name="Worms" country="DE" lat="49.63278" lng="8.35916" pop="81099"/>
    
    
    <City id="90" name="Wolfsburg" country="DE" lat="52.42452" lng="10.7815" pop="123064"/>
    
    
    <City id="91" name="Witten" country="DE" lat="51.44362" lng="7.35258" pop="101247"/>
    
    
    <City id="92" name="Wilmersdorf" country="DE" lat="52.48333" lng="13.31667" pop="101877"/>
    
    
    <City id="93" name="Wilhelmshaven" country="DE" lat="53.5476" lng="8.10395" pop="84393"/>
    
    
    <City id="94" name="Wiesbaden" country="DE" lat="50.08601" lng="8.24435" pop="278609"/>
    
    
    <City id="95" name="Wedding" country="DE" lat="52.54734" lng="13.35594" pop="85275"/>
    
    
    <City id="96" name="Villingen-Schwenningen" country="DE" lat="48.06226" lng="8.49358" pop="81770"/>
    
    
    <City id="97" name="Velbert" country="DE" lat="51.33537" lng="7.04348" pop="87669"/>
    
    
    <City id="98" name="Ulm" country="DE" lat="48.39841" lng="9.99155" pop="120451"/>
    
    
    <City id="99" name="Tuebingen" country="DE" lat="48.52266" lng="9.05222" pop="83416"/>
    
    
    <City id="100" name="Trier" country="DE" lat="49.75565" lng="6.63935" pop="100129"/>
    
    
    <City id="101" name="Stuttgart" country="DE" lat="48.78232" lng="9.17702" pop="630305"/>
    
    
    <City id="102" name="Solingen" country="DE" lat="51.17343" lng="7.0845" pop="164359"/>
    
    
    <City id="103" name="Siegen" country="DE" lat="50.87481" lng="8.02431" pop="107242"/>
    
    
    <City id="104" name="Schwerin" country="DE" lat="53.62937" lng="11.41316" pop="96641"/>
    
    
    <City id="105" name="Schoeneberg" country="DE" lat="52.49801" lng="13.3443" pop="122658"/>
    
    
    <City id="106" name="Salzgitter" country="DE" lat="52.15705" lng="10.4154" pop="103866"/>
    
    
    <City id="107" name="Saarbruecken" country="DE" lat="49.23262" lng="7.00982" pop="179349"/>
    
    
    <City id="108" name="Rostock" country="DE" lat="54.0887" lng="12.14049" pop="198293"/>
    
    
    <City id="109" name="Reutlingen" country="DE" lat="48.49144" lng="9.20427" pop="112627"/>
    
    
    <City id="110" name="Remscheid" country="DE" lat="51.17983" lng="7.1925" pop="117118"/>
    
    
    <City id="111" name="Reinickendorf" country="DE" lat="52.56395" lng="13.33552" pop="83972"/>
    
    
    <City id="112" name="Regensburg" country="DE" lat="49.01513" lng="12.10161" pop="129151"/>
    
    
    <City id="113" name="Recklinghausen" country="DE" lat="51.61379" lng="7.19738" pop="122438"/>
    
    
    <City id="114" name="Ratingen" country="DE" lat="51.29724" lng="6.84929" pop="91606"/>
    
    
    <City id="115" name="Rahlstedt" country="DE" lat="53.60194" lng="10.15667" pop="92511"/>
    
    
    <City id="116" name="Prenzlauer Berg Bezirk" country="DE" lat="52.53878" lng="13.42443" pop="148878"/>
    
    
    <City id="117" name="Potsdam" country="DE" lat="52.39886" lng="13.06566" pop="182112"/>
    
    
    <City id="118" name="Porz am Rhein" country="DE" lat="50.88637" lng="7.0583" pop="113415"/>
    
    
    <City id="119" name="Pforzheim" country="DE" lat="48.88436" lng="8.69892" pop="119313"/>
    
    
    <City id="120" name="Paderborn" country="DE" lat="51.71905" lng="8.75439" pop="142161"/>
    
    
    <City id="121" name="Osnabrueck" country="DE" lat="52.27264" lng="8.0498" pop="166462"/>
    
    
    <City id="122" name="Oldenburg" country="DE" lat="53.14039" lng="8.21479" pop="159218"/>
    
    
    <City id="123" name="Offenbach" country="DE" lat="50.10061" lng="8.76647" pop="119192"/>
    
    
    <City id="124" name="Oberhausen" country="DE" lat="51.47805" lng="6.8625" pop="219176"/>
    
    
    <City id="125" name="Nuernberg" country="DE" lat="49.45421" lng="11.07752" pop="515543"/>
    
    
    <City id="126" name="Nippes" country="DE" lat="50.96545" lng="6.95314" pop="113487"/>
    
    
    <City id="127" name="Neue Neustadt" country="DE" lat="52.15" lng="11.63333" pop="226851"/>
    
    
    <City id="128" name="Neuss" country="DE" lat="51.19807" lng="6.68504" pop="152457"/>
    
    
    <City id="129" name="Neumuenster" country="DE" lat="54.07399" lng="9.98456" pop="80196"/>
    
    
    <City id="130" name="Neukoelln" country="DE" lat="52.47719" lng="13.43126" pop="164636"/>
    
    
    <City id="131" name="Muenster" country="DE" lat="51.96236" lng="7.62571" pop="270184"/>
    
    
    <City id="132" name="Munich" country="DE" lat="48.13743" lng="11.57549" pop="1260391"/>
    
    
    <City id="133" name="Muelheim" country="DE" lat="51.43218" lng="6.87967" pop="170921"/>
    
    
    <City id="134" name="Moenchengladbach" country="DE" lat="51.18539" lng="6.44172" pop="261742"/>
    
    
    <City id="135" name="Moers" country="DE" lat="51.45342" lng="6.6326" pop="103487"/>
    
    
    <City id="136" name="Moabit" country="DE" lat="52.52635" lng="13.33903" pop="81021"/>
    
    
    <City id="137" name="Minden" country="DE" lat="52.28953" lng="8.91455" pop="82879"/>
    
    
    <City id="138" name="Marzahn" country="DE" lat="52.54525" lng="13.56983" pop="111508"/>
    
    
    <City id="139" name="Marl" country="DE" lat="51.65671" lng="7.09038" pop="91398"/>
    
    
    <City id="140" name="Mannheim" country="DE" lat="49.4891" lng="8.46694" pop="307960"/>
    
    
    <City id="141" name="Mainz" country="DE" lat="49.98185" lng="8.28008" pop="217123"/>
    
    
    <City id="142" name="Magdeburg" country="DE" lat="52.13129" lng="11.63189" pop="235775"/>
    
    
    <City id="143" name="Luenen" country="DE" lat="51.61634" lng="7.52872" pop="91009"/>
    
    
    <City id="144" name="Ludwigshafen am Rhein" country="DE" lat="49.48121" lng="8.44641" pop="163196"/>
    
    
    <City id="145" name="Ludwigsburg" country="DE" lat="48.89731" lng="9.19161" pop="87603"/>
    
    
    <City id="146" name="Luebeck" country="DE" lat="53.86893" lng="10.68729" pop="212207"/>
    
    
    <City id="147" name="Lichterfelde" country="DE" lat="52.4333" lng="13.30762" pop="85885"/>
    
    
    <City id="148" name="Leverkusen" country="DE" lat="51.0303" lng="6.98432" pop="162738"/>
    
    
    <City id="149" name="Leipzig" country="DE" lat="51.33962" lng="12.37129" pop="504971"/>
    
    
    <City id="150" name="Kreuzberg" country="DE" lat="52.49973" lng="13.40338" pop="153135"/>
    
    
    <City id="151" name="Krefeld" country="DE" lat="51.33645" lng="6.55381" pop="237984"/>
    
    
    <City id="152" name="Konstanz" country="DE" lat="47.66033" lng="9.17582" pop="81275"/>
    
    
    <City id="153" name="Koeln" country="DE" lat="50.93333" lng="6.95" pop="963395"/>
    
    
    <City id="154" name="Koblenz" country="DE" lat="50.35357" lng="7.57883" pop="107319"/>
    
    
    <City id="155" name="Kiel" country="DE" lat="54.32133" lng="10.13489" pop="246601"/>
    
    
    <City id="156" name="Kassel" country="DE" lat="51.31667" lng="9.5" pop="194501"/>
    
    
    <City id="157" name="Karlsruhe" country="DE" lat="49.00937" lng="8.40444" pop="283799"/>
    
    
    <City id="158" name="Kaiserslautern" country="DE" lat="49.443" lng="7.77161" pop="98732"/>
    
    
    <City id="159" name="Jena" country="DE" lat="50.92878" lng="11.5899" pop="104712"/>
    
    
    <City id="160" name="Iserlohn" country="DE" lat="51.37547" lng="7.70281" pop="97910"/>
    
    
    <City id="161" name="Ingolstadt" country="DE" lat="48.76508" lng="11.42372" pop="120658"/>
    
    
    <City id="162" name="Hildesheim" country="DE" lat="52.15077" lng="9.95112" pop="103052"/>
    
    
    <City id="163" name="Herne" country="DE" lat="51.5388" lng="7.22572" pop="172108"/>
    
    
    <City id="164" name="Hellersdorf" country="DE" lat="52.53319" lng="13.6088" pop="84103"/>
    
    
    <City id="165" name="Heilbronn" country="DE" lat="49.13995" lng="9.22054" pop="120733"/>
    
    
    <City id="166" name="Heidelberg" country="DE" lat="49.40768" lng="8.69079" pop="143345"/>
    
    
    <City id="167" name="Harburg" country="DE" lat="53.46057" lng="9.98388" pop="169221"/>
    
    
    <City id="168" name="Hannover" country="DE" lat="52.37052" lng="9.73322" pop="515140"/>
    
    
    <City id="169" name="Hanau am Main" country="DE" lat="50.13423" lng="8.91418" pop="88648"/>
    
    
    <City id="170" name="Hamm" country="DE" lat="51.68033" lng="7.82089" pop="178967"/>
    
    
    <City id="171" name="Wandsbek" country="DE" lat="53.58334" lng="10.08305" pop="411422"/>
    
    
    <City id="172" name="Marienthal" country="DE" lat="53.56667" lng="10.08333" pop="287101"/>
    
    
    <City id="173" name="Hamburg-Mitte" country="DE" lat="53.55" lng="10.01667" pop="301231"/>
    
    
    <City id="174" name="Eimsbuettel" country="DE" lat="53.57416" lng="9.95679" pop="269118"/>
    
    
    <City id="175" name="Altona" country="DE" lat="53.55" lng="9.93333" pop="250192"/>
    
    
    <City id="176" name="Hamburg" country="DE" lat="53.55073" lng="9.99302" pop="1845229"/>
    
    
    <City id="177" name="Halle (Saale)" country="DE" lat="51.48158" lng="11.97947" pop="237865"/>
    
    
    <City id="178" name="Hagen" country="DE" lat="51.36081" lng="7.47168" pop="198972"/>
    
    
    <City id="179" name="Guetersloh" country="DE" lat="51.90693" lng="8.37853" pop="96180"/>
    
    
    <City id="180" name="Goettingen" country="DE" lat="51.53443" lng="9.93228" pop="122149"/>
    
    
    <City id="181" name="Gesundbrunnen" country="DE" lat="52.55035" lng="13.39139" pop="93862"/>
    
    
    <City id="182" name="Gera" country="DE" lat="50.88029" lng="12.08187" pop="104659"/>
    
    
    <City id="183" name="Gelsenkirchen" country="DE" lat="51.50508" lng="7.09654" pop="270028"/>
    
    
    <City id="184" name="Furth" country="DE" lat="49.47593" lng="10.98856" pop="112025"/>
    
    
    <City id="185" name="Friedrichshain Bezirk" country="DE" lat="52.51559" lng="13.45482" pop="117829"/>
    
    
    <City id="186" name="Freiburg" country="DE" lat="47.9959" lng="7.85222" pop="215966"/>
    
    
    <City id="187" name="Frankfurt am Main" country="DE" lat="50.11552" lng="8.68417" pop="650000"/>
    
    
    <City id="188" name="Flensburg" country="DE" lat="54.78805" lng="9.43722" pop="85838"/>
    
    
    <City id="189" name="Esslingen" country="DE" lat="48.73961" lng="9.30473" pop="92390"/>
    
    
    <City id="190" name="Essen" country="DE" lat="51.45657" lng="7.01228" pop="593085"/>
    
    
    <City id="191" name="Erlangen" country="DE" lat="49.59099" lng="11.00783" pop="102675"/>
    
    
    <City id="192" name="Erfurt" country="DE" lat="50.97734" lng="11.03536" pop="213692"/>
    
    
    <City id="193" name="Duesseldorf" country="DE" lat="51.22319" lng="6.77927" pop="620523"/>
    
    
    <City id="194" name="Dueren" country="DE" lat="50.80434" lng="6.49299" pop="93440"/>
    
    
    <City id="195" name="Duisburg" country="DE" lat="51.43247" lng="6.76516" pop="504358"/>
    
    
    <City id="196" name="Dresden" country="DE" lat="51.05089" lng="13.73832" pop="556227"/>
    
    
    <City id="197" name="Dortmund" country="DE" lat="51.51494" lng="7.466" pop="588462"/>
    
    
    <City id="198" name="Darmstadt" country="DE" lat="49.87167" lng="8.65027" pop="140385"/>
    
    
    <City id="199" name="Cottbus" country="DE" lat="51.75769" lng="14.32888" pop="84754"/>
    
    
    <City id="200" name="Chemnitz" country="DE" lat="50.8357" lng="12.92922" pop="247220"/>
    
    
    <City id="201" name="Charlottenburg" country="DE" lat="52.51667" lng="13.28333" pop="129359"/>
    
    
    <City id="202" name="Bremerhaven" country="DE" lat="53.55357" lng="8.57553" pop="113557"/>
    
    
    <City id="203" name="Bremen" country="DE" lat="53.07582" lng="8.80717" pop="546501"/>
    
    
    <City id="204" name="Braunschweig" country="DE" lat="52.26594" lng="10.52673" pop="244715"/>
    
    
    <City id="205" name="Bottrop" country="DE" lat="51.52392" lng="6.9285" pop="119909"/>
    
    
    <City id="206" name="Bonn" country="DE" lat="50.73438" lng="7.09549" pop="330579"/>
    
    
    <City id="207" name="Bochum" country="DE" lat="51.48165" lng="7.21648" pop="385729"/>
    
    
    <City id="208" name="Bielefeld" country="DE" lat="52.03333" lng="8.53333" pop="331906"/>
    
    
    <City id="209" name="Berlin" country="DE" lat="52.52437" lng="13.41053" pop="3426354"/>
    
    
    <City id="210" name="Bergisch Gladbach" country="DE" lat="50.9856" lng="7.13298" pop="106184"/>
    
    
    <City id="211" name="Augsburg" country="DE" lat="48.37154" lng="10.89851" pop="259196"/>
    
    
    <City id="212" name="Aachen" country="DE" lat="50.77664" lng="6.08342" pop="265208"/>
    
    
    <City id="213" name="Mitte" country="DE" lat="52.52003" lng="13.40489" pop="102338"/>
    
    
    <City id="214" name="Bergedorf" country="DE" lat="53.48462" lng="10.22904" pop="119665"/>
    
    
    <City id="215" name="Hamburg-Nord" country="DE" lat="53.58935" lng="9.984" pop="315514"/>
    
    
    <City id="216" name="Rodenkirchen" country="DE" lat="50.89328" lng="6.99481" pop="110158"/>
    
    
    <City id="217" name="Odense" country="DK" lat="55.39594" lng="10.38831" pop="180863"/>
    
    
    <City id="218" name="Copenhagen" country="DK" lat="55.67594" lng="12.56553" pop="1153615"/>
    
    
    <City id="219" name="Frederiksberg" country="DK" lat="55.67938" lng="12.53463" pop="95029"/>
    
    
    <City id="220" name="Arhus" country="DK" lat="56.15674" lng="10.21076" pop="285273"/>
    
    
    <City id="221" name="Aalborg" country="DK" lat="57.048" lng="9.9187" pop="142937"/>
    
    
    <City id="222" name="Tartu" country="EE" lat="58.38062" lng="26.72509" pop="91407"/>
    
    
    <City id="223" name="Tallinn" country="EE" lat="59.43696" lng="24.75353" pop="394024"/>
    
    
    <City id="224" name="Valencia" country="ES" lat="39.47391" lng="-0.37966" pop="824340"/>
    
    
    <City id="225" name="Torrevieja" country="ES" lat="37.97872" lng="-0.68222" pop="82599"/>
    
    
    <City id="226" name="Toledo" country="ES" lat="39.8581" lng="-4.02263" pop="86526"/>
    
    
    <City id="227" name="Telde" country="ES" lat="27.99243" lng="-15.41915" pop="123265"/>
    
    
    <City id="228" name="Talavera de la Reina" country="ES" lat="39.96348" lng="-4.83076" pop="88856"/>
    
    
    <City id="229" name="Sevilla" country="ES" lat="37.38283" lng="-5.97317" pop="686741"/>
    
    
    <City id="230" name="Santa Cruz de Tenerife" country="ES" lat="28.46824" lng="-16.25462" pop="211359"/>
    
    
    <City id="231" name="San Fernando" country="ES" lat="36.4759" lng="-6.19817" pop="95174"/>
    
    
    <City id="232" name="La Laguna" country="ES" lat="28.4853" lng="-16.32014" pop="150661"/>
    
    
    <City id="233" name="Roquetas de Mar" country="ES" lat="36.76419" lng="-2.61475" pop="94925"/>
    
    
    <City id="234" name="Palma" country="ES" lat="39.56939" lng="2.65024" pop="438234"/>
    
    
    <City id="235" name="Orihuela" country="ES" lat="38.08483" lng="-0.94401" pop="101321"/>
    
    
    <City id="236" name="Murcia" country="ES" lat="37.98704" lng="-1.13004" pop="471982"/>
    
    
    <City id="237" name="Mijas" country="ES" lat="36.59575" lng="-4.63728" pop="80630"/>
    
    
    <City id="238" name="Melilla" country="ES" lat="35.29369" lng="-2.93833" pop="85985"/>
    
    
    <City id="239" name="Marbella" country="ES" lat="36.51543" lng="-4.88583" pop="156295"/>
    
    
    <City id="240" name="Malaga" country="ES" lat="36.72016" lng="-4.42034" pop="592346"/>
    
    
    <City id="241" name="Lorca" country="ES" lat="37.67119" lng="-1.7017" pop="93079"/>
    
    
    <City id="242" name="Las Palmas de Gran Canaria" country="ES" lat="28.10178" lng="-15.41573" pop="383516"/>
    
    
    <City id="243" name="Jerez de la Frontera" country="ES" lat="36.68645" lng="-6.13606" pop="212879"/>
    
    
    <City id="244" name="Jaen" country="ES" lat="37.76922" lng="-3.79028" pop="113457"/>
    
    
    <City id="245" name="Huelva" country="ES" lat="37.26638" lng="-6.94004" pop="144258"/>
    
    
    <City id="246" name="Granada" country="ES" lat="37.18817" lng="-3.60667" pop="233532"/>
    
    
    <City id="247" name="El Puerto de Santa Maria" country="ES" lat="36.59389" lng="-6.23298" pop="88364"/>
    
    
    <City id="248" name="El Ejido" country="ES" lat="36.77629" lng="-2.81456" pop="84710"/>
    
    
    <City id="249" name="Elche" country="ES" lat="38.26218" lng="-0.70107" pop="234765"/>
    
    
    <City id="250" name="Dos Hermanas" country="ES" lat="37.28287" lng="-5.92088" pop="122943"/>
    
    
    <City id="251" name="Cordoba" country="ES" lat="37.89155" lng="-4.77275" pop="325708"/>
    
    
    <City id="252" name="Chiclana de la Frontera" country="ES" lat="36.41976" lng="-6.14367" pop="83831"/>
    
    
    <City id="253" name="Castello de la Plana" country="ES" lat="39.98567" lng="-0.04935" pop="171857"/>
    
    
    <City id="254" name="Cartagena" country="ES" lat="37.60197" lng="-0.98397" pop="213943"/>
    
    
    <City id="255" name="Cadiz" country="ES" lat="36.52672" lng="-6.2891" pop="116979"/>
    
    
    <City id="256" name="Caceres" country="ES" lat="39.47649" lng="-6.37224" pop="96068"/>
    
    
    <City id="257" name="Badajoz" country="ES" lat="38.87789" lng="-6.97061" pop="150530"/>
    
    
    <City id="258" name="Almeria" country="ES" lat="36.83814" lng="-2.45974" pop="196851"/>
    
    
    <City id="259" name="Alicante" country="ES" lat="38.34517" lng="-0.48149" pop="348901"/>
    
    
    <City id="260" name="Algeciras" country="ES" lat="36.13326" lng="-5.45051" pop="121414"/>
    
    
    <City id="261" name="Albacete" country="ES" lat="38.99424" lng="-1.85643" pop="173050"/>
    
    
    <City id="262" name="Zaragoza" country="ES" lat="41.65606" lng="-0.87734" pop="686986"/>
    
    
    <City id="263" name="Gasteiz / Vitoria" country="ES" lat="42.84998" lng="-2.67268" pop="257407"/>
    
    
    <City id="264" name="Villaverde" country="ES" lat="40.35" lng="-3.7" pop="126802"/>
    
    
    <City id="265" name="Vigo" country="ES" lat="42.23282" lng="-8.72264" pop="293642"/>
    
    
    <City id="266" name="Valladolid" country="ES" lat="41.65541" lng="-4.72353" pop="300618"/>
    
    
    <City id="267" name="Torrejon de Ardoz" country="ES" lat="40.45535" lng="-3.46973" pop="118162"/>
    
    
    <City id="268" name="Tetuan de las Victorias" country="ES" lat="40.45975" lng="-3.6975" pop="155000"/>
    
    
    <City id="269" name="Terrassa" country="ES" lat="41.56667" lng="2.01667" pop="218535"/>
    
    
    <City id="270" name="Tarragona" country="ES" lat="41.11905" lng="1.24544" pop="141542"/>
    
    
    <City id="271" name="Barakaldo" country="ES" lat="43.29639" lng="-2.98813" pop="100435"/>
    
    
    <City id="272" name="Santiago de Compostela" country="ES" lat="42.88052" lng="-8.54569" pop="99536"/>
    
    
    <City id="273" name="Santander" country="ES" lat="43.46589" lng="-3.80493" pop="173635"/>
    
    
    <City id="274" name="Santa Coloma de Gramenet" country="ES" lat="41.45152" lng="2.2081" pop="118821"/>
    
    
    <City id="275" name="San Sebastian" country="ES" lat="43.31283" lng="-1.97499" pop="185357"/>
    
    
    <City id="276" name="Sant Boi de Llobregat" country="ES" lat="41.34357" lng="2.03659" pop="82428"/>
    
    
    <City id="277" name="Sant Andreu" country="ES" lat="41.43541" lng="2.18982" pop="142598"/>
    
    
    <City id="278" name="Salamanca" country="ES" lat="40.96882" lng="-5.66388" pop="144825"/>
    
    
    <City id="279" name="Sabadell" country="ES" lat="41.54329" lng="2.10942" pop="211734"/>
    
    
    <City id="280" name="Reus" country="ES" lat="41.15612" lng="1.10687" pop="103477"/>
    
    
    <City id="281" name="Puente de Vallecas" country="ES" lat="40.39354" lng="-3.662" pop="244151"/>
    
    
    <City id="282" name="Pozuelo de Alarcon" country="ES" lat="40.43293" lng="-3.81338" pop="82428"/>
    
    
    <City id="283" name="Pontevedra" country="ES" lat="42.431" lng="-8.64435" pop="82802"/>
    
    
    <City id="284" name="Parla" country="ES" lat="40.23604" lng="-3.76752" pop="115611"/>
    
    
    <City id="285" name="Pamplona" country="ES" lat="42.81687" lng="-1.64323" pop="208243"/>
    
    
    <City id="286" name="Oviedo" country="ES" lat="43.36029" lng="-5.84476" pop="220027"/>
    
    
    <City id="287" name="Ourense" country="ES" lat="42.33669" lng="-7.86407" pop="105233"/>
    
    
    <City id="288" name="Mostoles" country="ES" lat="40.32234" lng="-3.86496" pop="207095"/>
    
    
    <City id="289" name="Moratalaz" country="ES" lat="40.40742" lng="-3.64935" pop="104923"/>
    
    
    <City id="290" name="Mataro" country="ES" lat="41.54211" lng="2.4445" pop="126988"/>
    
    
    <City id="291" name="Madrid" country="ES" lat="40.4165" lng="-3.70256" pop="3255944"/>
    
    
    <City id="292" name="Lugo" country="ES" lat="43.00992" lng="-7.55602" pop="98025"/>
    
    
    <City id="293" name="Logrono" country="ES" lat="42.46615" lng="-2.45115" pop="151164"/>
    
    
    <City id="294" name="Lleida" country="ES" lat="41.61674" lng="0.62218" pop="140797"/>
    
    
    <City id="295" name="Leon" country="ES" lat="42.60003" lng="-5.57032" pop="124772"/>
    
    
    <City id="296" name="Leganes" country="ES" lat="40.32718" lng="-3.7635" pop="188425"/>
    
    
    <City id="297" name="Las Rozas de Madrid" country="ES" lat="40.49292" lng="-3.87371" pop="95550"/>
    
    
    <City id="298" name="A Coruna" country="ES" lat="43.37135" lng="-8.396" pop="250438"/>
    
    
    <City id="299" name="L'Hospitalet de Llobregat" country="ES" lat="41.35967" lng="2.10028" pop="257038"/>
    
    
    <City id="300" name="Hortaleza" country="ES" lat="40.47444" lng="-3.6411" pop="161661"/>
    
    
    <City id="301" name="Getxo" country="ES" lat="43.35689" lng="-3.01146" pop="80770"/>
    
    
    <City id="302" name="Guadalajara" country="ES" lat="40.62862" lng="-3.16185" pop="93470"/>
    
    
    <City id="303" name="Gracia" country="ES" lat="41.40237" lng="2.15641" pop="121502"/>
    
    
    <City id="304" name="Gijon" country="ES" lat="43.53573" lng="-5.66152" pop="271780"/>
    
    
    <City id="305" name="Getafe" country="ES" lat="40.30571" lng="-3.73295" pop="187525"/>
    
    
    <City id="306" name="Girona" country="ES" lat="41.98311" lng="2.82493" pop="100266"/>
    
    
    <City id="307" name="Fuenlabrada" country="ES" lat="40.28419" lng="-3.79415" pop="190496"/>
    
    
    <City id="308" name="Fuencarral" country="ES" lat="40.5" lng="-3.68333" pop="238765"/>
    
    
    <City id="309" name="Coslada" country="ES" lat="40.42378" lng="-3.56129" pop="81860"/>
    
    
    <City id="310" name="Cornella de Llobregat" country="ES" lat="41.35" lng="2.08333" pop="87173"/>
    
    
    <City id="311" name="Ciudad Lineal" country="ES" lat="40.44505" lng="-3.65132" pop="228171"/>
    
    
    <City id="312" name="Chamartin" country="ES" lat="40.46206" lng="-3.6766" pop="140000"/>
    
    
    <City id="313" name="Burgos" country="ES" lat="42.34106" lng="-3.70184" pop="176418"/>
    
    
    <City id="314" name="Bilbao" country="ES" lat="43.26271" lng="-2.92528" pop="347342"/>
    
    
    <City id="315" name="Barcelona" country="ES" lat="41.38879" lng="2.15899" pop="1686208"/>
    
    
    <City id="316" name="Badalona" country="ES" lat="41.45004" lng="2.24741" pop="217741"/>
    
    
    <City id="317" name="Algorta" country="ES" lat="43.34927" lng="-3.0094" pop="82624"/>
    
    
    <City id="318" name="Alcorcon" country="ES" lat="40.34582" lng="-3.82487" pop="172384"/>
    
    
    <City id="319" name="Alcobendas" country="ES" lat="40.54746" lng="-3.64197" pop="116037"/>
    
    
    <City id="320" name="Alcala de Henares" country="ES" lat="40.48205" lng="-3.35996" pop="193751"/>
    
    
    <City id="321" name="Nou Barris" country="ES" lat="41.44163" lng="2.17727" pop="166310"/>
    
    
    <City id="322" name="Ceuta" country="ES" lat="35.88919" lng="-5.32042" pop="83179"/>
    
    
    <City id="323" name="Moncloa-Aravaca" country="ES" lat="40.43547" lng="-3.7317" pop="116531"/>
    
    
    <City id="324" name="Eixample" country="ES" lat="41.38896" lng="2.16179" pop="266477"/>
    
    
    <City id="325" name="Les Corts" country="ES" lat="41.38712" lng="2.13007" pop="82270"/>
    
    
    <City id="326" name="Sarria-Sant Gervasi" country="ES" lat="41.40104" lng="2.1394" pop="147912"/>
    
    
    <City id="327" name="Horta-Guinardo" country="ES" lat="41.41849" lng="2.1677" pop="168092"/>
    
    
    <City id="328" name="Sants-Montjuic" country="ES" lat="41.37263" lng="2.1546" pop="183120"/>
    
    
    <City id="329" name="Sant Marti" country="ES" lat="41.41814" lng="2.19933" pop="235719"/>
    
    
    <City id="330" name="Ciutat Vella" country="ES" lat="41.38022" lng="2.17319" pop="102347"/>
    
    
    <City id="331" name="Arganzuela" country="ES" lat="40.40021" lng="-3.69618" pop="148797"/>
    
    
    <City id="332" name="San Blas-Canillejas" country="ES" lat="40.43893" lng="-3.61537" pop="157367"/>
    
    
    <City id="333" name="Latina" country="ES" lat="40.38897" lng="-3.74569" pop="256644"/>
    
    
    <City id="334" name="Usera" country="ES" lat="40.38866" lng="-3.70035" pop="141189"/>
    
    
    <City id="335" name="Chamberi" country="ES" lat="40.43404" lng="-3.70379" pop="145934"/>
    
    
    <City id="336" name="Carabanchel" country="ES" lat="40.39094" lng="-3.7242" pop="253678"/>
    
    
    <City id="337" name="Madrid Centro" country="ES" lat="40.41831" lng="-3.70275" pop="149718"/>
    
    
    <City id="338" name="Retiro" country="ES" lat="40.41317" lng="-3.68307" pop="126058"/>
    
    
    <City id="339" name="Delicias" country="ES" lat="41.64928" lng="-0.90757" pop="110520"/>
    
    
    <City id="340" name="Centro" country="ES" lat="28.1272" lng="-15.4314" pop="88546"/>
    
    
    <City id="341" name="Fuencarral-El Pardo" country="ES" lat="40.4984" lng="-3.7314" pop="220085"/>
    
    
    <City id="342" name="Vantaa" country="FI" lat="60.29414" lng="25.04099" pop="252724"/>
    
    
    <City id="343" name="Turku" country="FI" lat="60.45148" lng="22.26869" pop="206655"/>
    
    
    <City id="344" name="Tampere" country="FI" lat="61.49911" lng="23.78712" pop="260646"/>
    
    
    <City id="345" name="Pori" country="FI" lat="61.48072" lng="21.78518" pop="83157"/>
    
    
    <City id="346" name="Oulu" country="FI" lat="65.01236" lng="25.46816" pop="216066"/>
    
    
    <City id="347" name="Lahti" country="FI" lat="60.98267" lng="25.66151" pop="121622"/>
    
    
    <City id="348" name="Kuopio" country="FI" lat="62.89238" lng="27.67703" pop="125462"/>
    
    
    <City id="349" name="Jyvaeskylae" country="FI" lat="62.24147" lng="25.72088" pop="148744"/>
    
    
    <City id="350" name="Helsinki" country="FI" lat="60.16952" lng="24.93545" pop="658864"/>
    
    
    <City id="351" name="Espoo" country="FI" lat="60.2052" lng="24.6522" pop="323910"/>
    
    
    <City id="352" name="East Helsinki" country="FI" lat="60.21043" lng="25.08289" pop="170557"/>
    
    
    <City id="353" name="Vitry-sur-Seine" country="FR" lat="48.78716" lng="2.40332" pop="81001"/>
    
    
    <City id="354" name="Villeurbanne" country="FR" lat="45.76601" lng="4.8795" pop="131445"/>
    
    
    <City id="355" name="Versailles" country="FR" lat="48.80359" lng="2.13424" pop="85416"/>
    
    
    <City id="356" name="Paris 15 Vaugirard" country="FR" lat="48.8412" lng="2.3003" pop="229713"/>
    
    
    <City id="357" name="Tours" country="FR" lat="47.39484" lng="0.70398" pop="141621"/>
    
    
    <City id="358" name="Tourcoing" country="FR" lat="50.72391" lng="3.16117" pop="99160"/>
    
    
    <City id="359" name="Toulouse" country="FR" lat="43.60426" lng="1.44367" pop="511684"/>
    
    
    <City id="360" name="Toulon" country="FR" lat="43.12442" lng="5.92836" pop="168701"/>
    
    
    <City id="361" name="Strasbourg" country="FR" lat="48.58392" lng="7.74553" pop="274845"/>
    
    
    <City id="362" name="Saint-Etienne" country="FR" lat="45.43389" lng="4.39" pop="176280"/>
    
    
    <City id="363" name="Saint-Denis" country="FR" lat="48.93564" lng="2.35387" pop="96128"/>
    
    
    <City id="364" name="Rouen" country="FR" lat="49.44313" lng="1.09932" pop="116331"/>
    
    
    <City id="365" name="Roubaix" country="FR" lat="50.69421" lng="3.17456" pop="99507"/>
    
    
    <City id="366" name="Paris 12 Reuilly" country="FR" lat="48.8412" lng="2.3876" pop="138024"/>
    
    
    <City id="367" name="Rennes" country="FR" lat="48.11109" lng="-1.67431" pop="227830"/>
    
    
    <City id="368" name="Reims" country="FR" lat="49.26526" lng="4.02853" pop="196565"/>
    
    
    <City id="369" name="Paris 11 Popincourt" country="FR" lat="48.8574" lng="2.3795" pop="138170"/>
    
    
    <City id="370" name="Poitiers" country="FR" lat="46.58261" lng="0.34348" pop="85960"/>
    
    
    <City id="371" name="Perpignan" country="FR" lat="42.69764" lng="2.89541" pop="110706"/>
    
    
    <City id="372" name="Pau" country="FR" lat="43.31117" lng="-0.35583" pop="82697"/>
    
    
    <City id="373" name="Paris 16 Passy" country="FR" lat="48.8637" lng="2.2769" pop="159386"/>
    
    
    <City id="374" name="Paris" country="FR" lat="48.85341" lng="2.3488" pop="2138551"/>
    
    
    <City id="375" name="Orleans" country="FR" lat="47.90248" lng="1.90407" pop="116344"/>
    
    
    <City id="376" name="Paris 14 Observatoire" country="FR" lat="48.8331" lng="2.3264" pop="136455"/>
    
    
    <City id="377" name="Nimes" country="FR" lat="43.83665" lng="4.35788" pop="148236"/>
    
    
    <City id="378" name="Nice" country="FR" lat="43.70313" lng="7.26608" pop="342669"/>
    
    
    <City id="379" name="Nantes" country="FR" lat="47.21725" lng="-1.55336" pop="325070"/>
    
    
    <City id="380" name="Nanterre" country="FR" lat="48.89198" lng="2.20675" pop="86719"/>
    
    
    <City id="381" name="Nancy" country="FR" lat="48.68439" lng="6.18496" pop="105058"/>
    
    
    <City id="382" name="Mulhouse" country="FR" lat="47.75205" lng="7.32866" pop="111430"/>
    
    
    <City id="383" name="Montreuil" country="FR" lat="48.86415" lng="2.44322" pop="111240"/>
    
    
    <City id="384" name="Montpellier" country="FR" lat="43.61093" lng="3.87635" pop="248252"/>
    
    
    <City id="385" name="Metz" country="FR" lat="49.11911" lng="6.17269" pop="123914"/>
    
    
    <City id="386" name="Paris 20 Menilmontant" country="FR" lat="48.8646" lng="2.3984" pop="185140"/>
    
    
    <City id="387" name="Marseille" country="FR" lat="43.29695" lng="5.38107" pop="877215"/>
    
    
    <City id="388" name="Lyon" country="FR" lat="45.74906" lng="4.84789" pop="520774"/>
    
    
    <City id="389" name="Limoges" country="FR" lat="45.83362" lng="1.24759" pop="141176"/>
    
    
    <City id="390" name="Lille" country="FR" lat="50.63391" lng="3.05512" pop="238695"/>
    
    
    <City id="391" name="Le Mans" country="FR" lat="48.0021" lng="0.20251" pop="144515"/>
    
    
    <City id="392" name="Le Havre" country="FR" lat="49.49346" lng="0.10785" pop="185972"/>
    
    
    <City id="393" name="Grenoble" country="FR" lat="45.17869" lng="5.71479" pop="158552"/>
    
    
    <City id="394" name="Paris 13 Gobelins" country="FR" lat="48.8322" lng="2.3561" pop="181271"/>
    
    
    <City id="395" name="Paris 10 Entrepot" country="FR" lat="48.8709" lng="2.3561" pop="83873"/>
    
    
    <City id="396" name="Dijon" country="FR" lat="47.31344" lng="5.01391" pop="159941"/>
    
    
    <City id="397" name="Creteil" country="FR" lat="48.79266" lng="2.46569" pop="84833"/>
    
    
    <City id="398" name="Courbevoie" country="FR" lat="48.89672" lng="2.25666" pop="85158"/>
    
    
    <City id="399" name="Colombes" country="FR" lat="48.91882" lng="2.25404" pop="82300"/>
    
    
    <City id="400" name="Clermont-Ferrand" country="FR" lat="45.77969" lng="3.08682" pop="147865"/>
    
    
    <City id="401" name="Caen" country="FR" lat="49.18585" lng="-0.35912" pop="110624"/>
    
    
    <City id="402" name="Paris 19 Buttes-Chaumont" country="FR" lat="48.8817" lng="2.3822" pop="178691"/>
    
    
    <City id="403" name="Paris 18 Buttes-Montmartre" country="FR" lat="48.8925" lng="2.3444" pop="183127"/>
    
    
    <City id="404" name="Boulogne-Billancourt" country="FR" lat="48.83545" lng="2.24128" pop="108782"/>
    
    
    <City id="405" name="Bordeaux" country="FR" lat="44.84124" lng="-0.58046" pop="265328"/>
    
    
    <City id="406" name="Besancon" country="FR" lat="47.24878" lng="6.01815" pop="128426"/>
    
    
    <City id="407" name="Paris 17 Batignolles-Monceau" country="FR" lat="48.8835" lng="2.3219" pop="159212"/>
    
    
    <City id="408" name="Avignon" country="FR" lat="43.94834" lng="4.80892" pop="89769"/>
    
    
    <City id="409" name="Aulnay-sous-Bois" country="FR" lat="48.93814" lng="2.49402" pop="80615"/>
    
    
    <City id="410" name="Asnieres-sur-Seine" country="FR" lat="48.91667" lng="2.28333" pop="86742"/>
    
    
    <City id="411" name="Argenteuil" country="FR" lat="48.94788" lng="2.24744" pop="101475"/>
    
    
    <City id="412" name="Angers" country="FR" lat="47.47156" lng="-0.55202" pop="168279"/>
    
    
    <City id="413" name="Amiens" country="FR" lat="49.9" lng="2.3" pop="143086"/>
    
    
    <City id="414" name="Aix-en-Provence" country="FR" lat="43.5283" lng="5.44973" pop="146821"/>
    
    
    <City id="415" name="Lyon 03" country="FR" lat="45.76124" lng="4.85184" pop="102725"/>
    
    
    <City id="416" name="Lyon 07" country="FR" lat="45.74525" lng="4.84197" pop="82573"/>
    
    
    <City id="417" name="Lyon 08" country="FR" lat="45.73626" lng="4.86866" pop="86154"/>
    
    
    <City id="418" name="Marseille 13" country="FR" lat="43.31856" lng="5.40836" pop="89316"/>
    
    
    <City id="419" name="Saint-Quentin-en-Yvelines" country="FR" lat="48.77186" lng="2.01891" pop="146598"/>
    
    
    <City id="420" name="Cergy-Pontoise" country="FR" lat="49.03894" lng="2.07805" pop="183430"/>
    
    
    <City id="421" name="Marne La Vallee" country="FR" lat="48.83584" lng="2.64241" pop="318325"/>
    
    
    <City id="422" name="Paris 10e Arrondissement" country="FR" lat="48.87668" lng="2.35904" pop="83459"/>
    
    
    <City id="423" name="Paris 11e Arrondissement" country="FR" lat="48.85834" lng="2.37952" pop="144292"/>
    
    
    <City id="424" name="Paris 12e Arrondissement" country="FR" lat="48.83523" lng="2.43505" pop="140311"/>
    
    
    <City id="425" name="Paris 13e Arrondissement" country="FR" lat="48.8262" lng="2.35986" pop="177833"/>
    
    
    <City id="426" name="York" country="GB" lat="53.95763" lng="-1.08271" pop="156135"/>
    
    
    <City id="427" name="Worthing" country="GB" lat="50.81795" lng="-0.37538" pop="113866"/>
    
    
    <City id="428" name="Worcester" country="GB" lat="52.18935" lng="-2.22001" pop="101659"/>
    
    
    <City id="429" name="Wolverhampton" country="GB" lat="52.58547" lng="-2.12296" pop="263700"/>
    
    
    <City id="430" name="Woking" country="GB" lat="51.31903" lng="-0.55893" pop="103900"/>
    
    
    <City id="431" name="Wigan" country="GB" lat="53.54296" lng="-2.63706" pop="175405"/>
    
    
    <City id="432" name="Weston-super-Mare" country="GB" lat="51.34603" lng="-2.97665" pop="82903"/>
    
    
    <City id="433" name="City of Westminster" country="GB" lat="51.4975" lng="-0.1357" pop="247614"/>
    
    
    <City id="434" name="West Bromwich" country="GB" lat="52.51868" lng="-1.9945" pop="103112"/>
    
    
    <City id="435" name="Wembley" country="GB" lat="51.55242" lng="-0.29686" pop="90045"/>
    
    
    <City id="436" name="Watford" country="GB" lat="51.65531" lng="-0.39602" pop="125707"/>
    
    
    <City id="437" name="Warrington" country="GB" lat="53.39254" lng="-2.58024" pop="172330"/>
    
    
    <City id="438" name="Walthamstow" country="GB" lat="51.59067" lng="-0.02077" pop="109424"/>
    
    
    <City id="439" name="Walsall" country="GB" lat="52.58528" lng="-1.98396" pop="172141"/>
    
    
    <City id="440" name="Wakefield" country="GB" lat="53.68331" lng="-1.49768" pop="109766"/>
    
    
    <City id="441" name="Tottenham" country="GB" lat="51.60373" lng="-0.06794" pop="130000"/>
    
    
    <City id="442" name="Tamworth" country="GB" lat="52.63399" lng="-1.69587" pop="81964"/>
    
    
    <City id="443" name="Swindon" country="GB" lat="51.55797" lng="-1.78116" pop="201669"/>
    
    
    <City id="444" name="Swansea" country="GB" lat="51.62079" lng="-3.94323" pop="300352"/>
    
    
    <City id="445" name="Sutton Coldfield" country="GB" lat="52.56667" lng="-1.81667" pop="109899"/>
    
    
    <City id="446" name="Sutton" country="GB" lat="51.35" lng="-0.2" pop="187600"/>
    
    
    <City id="447" name="Sunderland" country="GB" lat="54.90465" lng="-1.38222" pop="170134"/>
    
    
    <City id="448" name="Stoke-on-Trent" country="GB" lat="53.00415" lng="-2.18538" pop="258366"/>
    
    
    <City id="449" name="Stockport" country="GB" lat="53.40979" lng="-2.15761" pop="139052"/>
    
    
    <City id="450" name="Stevenage" country="GB" lat="51.90224" lng="-0.20256" pop="91774"/>
    
    
    <City id="451" name="South Shields" country="GB" lat="54.99859" lng="-1.4323" pop="83655"/>
    
    
    <City id="452" name="Southport" country="GB" lat="53.64581" lng="-3.01008" pop="91703"/>
    
    
    <City id="453" name="Southend-on-Sea" country="GB" lat="51.53782" lng="0.71433" pop="295310"/>
    
    
    <City id="454" name="Southampton" country="GB" lat="50.90395" lng="-1.40428" pop="269781"/>
    
    
    <City id="455" name="Solihull" country="GB" lat="52.41426" lng="-1.78094" pop="126577"/>
    
    
    <City id="456" name="Slough" country="GB" lat="51.50949" lng="-0.59541" pop="164793"/>
    
    
    <City id="457" name="Sheffield" country="GB" lat="53.38297" lng="-1.4659" pop="556500"/>
    
    
    <City id="458" name="Scunthorpe" country="GB" lat="53.57905" lng="-0.65437" pop="81576"/>
    
    
    <City id="459" name="Salford" country="GB" lat="53.48771" lng="-2.29042" pop="129794"/>
    
    
    <City id="460" name="Saint Peters" country="GB" lat="51.36667" lng="1.41667" pop="125370"/>
    
    
    <City id="461" name="St Helens" country="GB" lat="53.45" lng="-2.73333" pop="183200"/>
    
    
    <City id="462" name="St Albans" country="GB" lat="51.75" lng="-0.33333" pop="84561"/>
    
    
    <City id="463" name="Rotherham" country="GB" lat="53.43012" lng="-1.35678" pop="117618"/>
    
    
    <City id="464" name="Romford" country="GB" lat="51.57515" lng="0.18582" pop="95000"/>
    
    
    <City id="465" name="Rochdale" country="GB" lat="53.61766" lng="-2.1552" pop="97550"/>
    
    
    <City id="466" name="Redditch" country="GB" lat="52.3065" lng="-1.94569" pop="87847"/>
    
    
    <City id="467" name="Reading" country="GB" lat="51.45625" lng="-0.97113" pop="318014"/>
    
    
    <City id="468" name="Preston" country="GB" lat="53.76282" lng="-2.70452" pop="313332"/>
    
    
    <City id="469" name="Portsmouth" country="GB" lat="50.79899" lng="-1.09125" pop="208100"/>
    
    
    <City id="470" name="Poole" country="GB" lat="50.71429" lng="-1.98458" pop="151500"/>
    
    
    <City id="471" name="Plymouth" country="GB" lat="50.37153" lng="-4.14305" pop="260203"/>
    
    
    <City id="472" name="Peterborough" country="GB" lat="52.57364" lng="-0.24777" pop="163379"/>
    
    
    <City id="473" name="Oxford" country="GB" lat="51.75222" lng="-1.25596" pop="162100"/>
    
    
    <City id="474" name="Oldham" country="GB" lat="53.54051" lng="-2.1183" pop="237110"/>
    
    
    <City id="475" name="Nuneaton" country="GB" lat="52.52323" lng="-1.46523" pop="88813"/>
    
    
    <City id="476" name="Nottingham" country="GB" lat="52.9536" lng="-1.15047" pop="323632"/>
    
    
    <City id="477" name="Norwich" country="GB" lat="52.62783" lng="1.29834" pop="143135"/>
    
    
    <City id="478" name="Northampton" country="GB" lat="52.25" lng="-0.88333" pop="245899"/>
    
    
    <City id="479" name="Newport" country="GB" lat="51.58774" lng="-2.99835" pop="161506"/>
    
    
    <City id="480" name="Newcastle upon Tyne" country="GB" lat="54.97328" lng="-1.61396" pop="300125"/>
    
    
    <City id="481" name="Newcastle under Lyme" country="GB" lat="53.0" lng="-2.23333" pop="127727"/>
    
    
    <City id="482" name="Milton Keynes" country="GB" lat="52.04172" lng="-0.75583" pop="256385"/>
    
    
    <City id="483" name="Middlesbrough" country="GB" lat="54.57623" lng="-1.23483" pop="142707"/>
    
    
    <City id="484" name="Mansfield" country="GB" lat="53.13333" lng="-1.2" pop="171958"/>
    
    
    <City id="485" name="Manchester" country="GB" lat="53.48095" lng="-2.23743" pop="568996"/>
    
    
    <City id="486" name="Maidstone" country="GB" lat="51.26667" lng="0.51667" pop="107627"/>
    
    
    <City id="487" name="Luton" country="GB" lat="51.87967" lng="-0.41748" pop="225262"/>
    
    
    <City id="488" name="Londonderry County Borough" country="GB" lat="54.99721" lng="-7.30917" pop="87153"/>
    
    
    <City id="489" name="Derry" country="GB" lat="54.9981" lng="-7.30934" pop="83652"/>
    
    
    <City id="490" name="London" country="GB" lat="51.50853" lng="-0.12574" pop="8961989"/>
    
    
    <City id="491" name="Liverpool" country="GB" lat="53.41058" lng="-2.97794" pop="496770"/>
    
    
    <City id="492" name="Lincoln" country="GB" lat="53.22683" lng="-0.53792" pop="103813"/>
    
    
    <City id="493" name="Leicester" country="GB" lat="52.6386" lng="-1.13169" pop="368600"/>
    
    
    <City id="494" name="Leeds" country="GB" lat="53.79648" lng="-1.54785" pop="536280"/>
    
    
    <City id="495" name="Kingston upon Hull" country="GB" lat="53.7446" lng="-0.33525" pop="314018"/>
    
    
    <City id="496" name="Islington" country="GB" lat="51.53622" lng="-0.10304" pop="319143"/>
    
    
    <City id="497" name="Ipswich" country="GB" lat="52.05917" lng="1.15545" pop="178835"/>
    
    
    <City id="498" name="Ilford" country="GB" lat="51.55765" lng="0.07278" pop="168168"/>
    
    
    <City id="499" name="Huddersfield" country="GB" lat="53.64904" lng="-1.78416" pop="149017"/>
    
    
    <City id="500" name="High Wycombe" country="GB" lat="51.62907" lng="-0.74934" pop="133204"/>
    
    
    <City id="501" name="Hemel Hempstead" country="GB" lat="51.75368" lng="-0.44975" pop="95961"/>
    
    
    <City id="502" name="Hayes" country="GB" lat="51.51579" lng="-0.4234" pop="93928"/>
    
    
    <City id="503" name="Hastings" country="GB" lat="50.85568" lng="0.58009" pop="92855"/>
    
    
    <City id="504" name="Hartlepool" country="GB" lat="54.68554" lng="-1.21028" pop="88855"/>
    
    
    <City id="505" name="Harrow" country="GB" lat="51.57835" lng="-0.33208" pop="149246"/>
    
    
    <City id="506" name="Harrogate" country="GB" lat="53.99078" lng="-1.5373" pop="89060"/>
    
    
    <City id="507" name="Harlow" country="GB" lat="51.77655" lng="0.11158" pop="93300"/>
    
    
    <City id="508" name="Halifax" country="GB" lat="53.71667" lng="-1.85" pop="82624"/>
    
    
    <City id="509" name="Grimsby" country="GB" lat="53.56539" lng="-0.07553" pop="86138"/>
    
    
    <City id="510" name="Grays" country="GB" lat="51.47566" lng="0.32521" pop="89755"/>
    
    
    <City id="511" name="Gosport" country="GB" lat="50.79509" lng="-1.12902" pop="81952"/>
    
    
    <City id="512" name="Gloucester" country="GB" lat="51.86568" lng="-2.2431" pop="132416"/>
    
    
    <City id="513" name="Glasgow" country="GB" lat="55.86515" lng="-4.25763" pop="626410"/>
    
    
    <City id="514" name="Gillingham" country="GB" lat="51.38914" lng="0.54863" pop="101187"/>
    
    
    <City id="515" name="Fulham" country="GB" lat="51.48026" lng="-0.1993" pop="87161"/>
    
    
    <City id="516" name="Exeter" country="GB" lat="50.7236" lng="-3.52751" pop="130709"/>
    
    
    <City id="517" name="Enfield Town" country="GB" lat="51.65147" lng="-0.08497" pop="156858"/>
    
    
    <City id="518" name="Edmonton" country="GB" lat="51.62561" lng="-0.05798" pop="82000"/>
    
    
    <City id="519" name="Edinburgh" country="GB" lat="55.95206" lng="-3.19648" pop="514990"/>
    
    
    <City id="520" name="Eastbourne" country="GB" lat="50.76871" lng="0.28453" pop="101689"/>
    
    
    <City id="521" name="Dundee" country="GB" lat="56.46913" lng="-2.97489" pop="148210"/>
    
    
    <City id="522" name="Dudley" country="GB" lat="52.5" lng="-2.08333" pop="199059"/>
    
    
    <City id="523" name="Doncaster" country="GB" lat="53.52285" lng="-1.13116" pop="113566"/>
    
    
    <City id="524" name="Derby" country="GB" lat="52.92277" lng="-1.47663" pop="270468"/>
    
    
    <City id="525" name="Darlington" country="GB" lat="54.52429" lng="-1.55039" pop="92363"/>
    
    
    <City id="526" name="Dagenham" country="GB" lat="51.55" lng="0.16667" pop="108368"/>
    
    
    <City id="527" name="Croydon" country="GB" lat="51.38333" lng="-0.1" pop="173314"/>
    
    
    <City id="528" name="Crawley" country="GB" lat="51.11303" lng="-0.18312" pop="124008"/>
    
    
    <City id="529" name="Coventry" country="GB" lat="52.40656" lng="-1.51217" pop="345324"/>
    
    
    <City id="530" name="Colchester" country="GB" lat="51.88921" lng="0.90421" pop="130245"/>
    
    
    <City id="531" name="Chesterfield" country="GB" lat="53.25" lng="-1.41667" pop="113057"/>
    
    
    <City id="532" name="Chester" country="GB" lat="53.1905" lng="-2.89189" pop="90524"/>
    
    
    <City id="533" name="Cheltenham" country="GB" lat="51.90006" lng="-2.07972" pop="118836"/>
    
    
    <City id="534" name="Chelmsford" country="GB" lat="51.73575" lng="0.46958" pop="111511"/>
    
    
    <City id="535" name="Chatham" country="GB" lat="51.37891" lng="0.52786" pop="80596"/>
    
    
    <City id="536" name="Cardiff" country="GB" lat="51.48" lng="-3.18" pop="372089"/>
    
    
    <City id="537" name="Cannock" country="GB" lat="52.69045" lng="-2.03085" pop="86121"/>
    
    
    <City id="538" name="Cambridge" country="GB" lat="52.2" lng="0.11667" pop="145674"/>
    
    
    <City id="539" name="Burton upon Trent" country="GB" lat="52.80728" lng="-1.64263" pop="122199"/>
    
    
    <City id="540" name="Burnley" country="GB" lat="53.8" lng="-2.23333" pop="149422"/>
    
    
    <City id="541" name="Bristol" country="GB" lat="51.45523" lng="-2.59665" pop="479024"/>
    
    
    <City id="542" name="Brighton" country="GB" lat="50.82838" lng="-0.13947" pop="283870"/>
    
    
    <City id="543" name="Brent" country="GB" lat="51.55306" lng="-0.3023" pop="329100"/>
    
    
    <City id="544" name="Bradford" country="GB" lat="53.79391" lng="-1.75206" pop="366187"/>
    
    
    <City id="545" name="Bournemouth" country="GB" lat="50.72048" lng="-1.8795" pop="163600"/>
    
    
    <City id="546" name="Bolton" country="GB" lat="53.58333" lng="-2.43333" pop="141331"/>
    
    
    <City id="547" name="Blackpool" country="GB" lat="53.81667" lng="-3.05" pop="145007"/>
    
    
    <City id="548" name="Blackburn" country="GB" lat="53.75" lng="-2.48333" pop="146521"/>
    
    
    <City id="549" name="Birmingham" country="GB" lat="52.48142" lng="-1.89983" pop="1157603"/>
    
    
    <City id="550" name="Birkenhead" country="GB" lat="53.39337" lng="-3.01479" pop="325264"/>
    
    
    <City id="551" name="Bexley" country="GB" lat="51.44162" lng="0.14866" pop="228000"/>
    
    
    <City id="552" name="Belfast" country="GB" lat="54.59682" lng="-5.92541" pop="348005"/>
    
    
    <City id="553" name="Bedford" country="GB" lat="52.13459" lng="-0.46632" pop="106940"/>
    
    
    <City id="554" name="Bath" country="GB" lat="51.3751" lng="-2.36172" pop="101557"/>
    
    
    <City id="555" name="Basingstoke" country="GB" lat="51.26249" lng="-1.08708" pop="107642"/>
    
    
    <City id="556" name="Basildon" country="GB" lat="51.56844" lng="0.45782" pop="144859"/>
    
    
    <City id="557" name="Barking" country="GB" lat="51.53333" lng="0.08333" pop="218534"/>
    
    
    <City id="558" name="Aberdeen" country="GB" lat="57.14369" lng="-2.09814" pop="198590"/>
    
    
    <City id="559" name="Telford" country="GB" lat="52.67659" lng="-2.44926" pop="155570"/>
    
    
    <City id="560" name="Becontree" country="GB" lat="51.5529" lng="0.129" pop="100000"/>
    
    
    <City id="561" name="Mendip" country="GB" lat="51.2372" lng="-2.6266" pop="110000"/>
    
    
    <City id="562" name="High Peak" country="GB" lat="53.36797" lng="-1.84536" pop="92666"/>
    
    
    <City id="563" name="Archway" country="GB" lat="51.56733" lng="-0.13415" pop="215667"/>
    
    
    <City id="564" name="Volos" country="GR" lat="39.36923" lng="22.94769" pop="86048"/>
    
    
    <City id="565" name="Piraeus" country="GR" lat="37.94203" lng="23.64619" pop="163688"/>
    
    
    <City id="566" name="Peristeri" country="GR" lat="38.01539" lng="23.69187" pop="139981"/>
    
    
    <City id="567" name="Patra" country="GR" lat="38.2462" lng="21.73508" pop="168034"/>
    
    
    <City id="568" name="Nikaia" country="GR" lat="37.96667" lng="23.65" pop="89380"/>
    
    
    <City id="569" name="Ilion" country="GR" lat="38.03333" lng="23.7" pop="84793"/>
    
    
    <City id="570" name="Larisa" country="GR" lat="39.62847" lng="22.42112" pop="146926"/>
    
    
    <City id="571" name="Kallithea" country="GR" lat="37.95" lng="23.7" pop="100641"/>
    
    
    <City id="572" name="Irakleion" country="GR" lat="35.32787" lng="25.14341" pop="137154"/>
    
    
    <City id="573" name="Glyfada" country="GR" lat="37.86289" lng="23.75802" pop="87305"/>
    
    
    <City id="574" name="Athens" country="GR" lat="37.98376" lng="23.72784" pop="664046"/>
    
    
    <City id="575" name="Acharnes" country="GR" lat="38.08333" lng="23.73333" pop="99346"/>
    
    
    <City id="576" name="Thessaloniki" country="GR" lat="40.64072" lng="22.93493" pop="317778"/>
    
    
    <City id="577" name="Kalamaria" country="GR" lat="40.5825" lng="22.95028" pop="91518"/>
    
    
    <City id="578" name="Zagreb" country="HR" lat="45.81444" lng="15.97798" pop="663592"/>
    
    
    <City id="579" name="Split" country="HR" lat="43.50891" lng="16.43915" pop="149830"/>
    
    
    <City id="580" name="Rijeka" country="HR" lat="45.32673" lng="14.44241" pop="107964"/>
    
    
    <City id="581" name="Szeged" country="HU" lat="46.253" lng="20.14824" pop="160766"/>
    
    
    <City id="582" name="Nyiregyhaza" country="HU" lat="47.95539" lng="21.71671" pop="117689"/>
    
    
    <City id="583" name="Miskolc" country="HU" lat="48.10327" lng="20.77806" pop="154521"/>
    
    
    <City id="584" name="Debrecen" country="HU" lat="47.53167" lng="21.62444" pop="202402"/>
    
    
    <City id="585" name="Zuglo" country="HU" lat="47.51758" lng="19.10549" pop="130000"/>
    
    
    <City id="586" name="Ujpest" country="HU" lat="47.56863" lng="19.08456" pop="100694"/>
    
    
    <City id="587" name="Szekesfehervar" country="HU" lat="47.18995" lng="18.41034" pop="101600"/>
    
    
    <City id="588" name="Pest" country="HU" lat="47.5" lng="19.08333" pop="1001748"/>
    
    
    <City id="589" name="Pecs" country="HU" lat="46.07617" lng="18.22814" pop="145347"/>
    
    
    <City id="590" name="Kecskemet" country="HU" lat="46.90618" lng="19.69128" pop="109847"/>
    
    
    <City id="591" name="Gyor" country="HU" lat="47.68333" lng="17.63512" pop="129301"/>
    
    
    <City id="592" name="Budapest" country="HU" lat="47.49835" lng="19.04045" pop="1741041"/>
    
    
    <City id="593" name="Buda" country="HU" lat="47.5" lng="19.03333" pop="510108"/>
    
    
    <City id="594" name="Budapest XI. keruelet" country="HU" lat="47.47603" lng="19.03605" pop="139049"/>
    
    
    <City id="595" name="Budapest VIII. keruelet" country="HU" lat="47.48919" lng="19.07012" pop="82222"/>
    
    
    <City id="596" name="Budapest XIII. keruelet" country="HU" lat="47.52978" lng="19.08068" pop="113531"/>
    
    
    <City id="597" name="Budapest IV. keruelet" country="HU" lat="47.56182" lng="19.08909" pop="98374"/>
    
    
    <City id="598" name="Budapest XV. keruelet" country="HU" lat="47.56263" lng="19.11681" pop="80218"/>
    
    
    <City id="599" name="Budapest XVIII. keruelet" country="HU" lat="47.44417" lng="19.17595" pop="93225"/>
    
    
    <City id="600" name="Budapest III. keruelet" country="HU" lat="47.54157" lng="19.04501" pop="123723"/>
    
    
    <City id="601" name="Budapest II. keruelet" country="HU" lat="47.51984" lng="19.02218" pop="88729"/>
    
    
    <City id="602" name="Tallaght" country="IE" lat="53.2859" lng="-6.37344" pop="80339"/>
    
    
    <City id="603" name="Limerick" country="IE" lat="52.66472" lng="-8.62306" pop="94192"/>
    
    
    <City id="604" name="Galway" country="IE" lat="53.27245" lng="-9.05095" pop="83456"/>
    
    
    <City id="605" name="Dublin" country="IE" lat="53.33306" lng="-6.24889" pop="1024027"/>
    
    
    <City id="606" name="Cork" country="IE" lat="51.89797" lng="-8.47061" pop="190384"/>
    
    
    <City id="607" name="South Dublin" country="IE" lat="53.29026" lng="-6.34151" pop="278749"/>
    
    
    <City id="608" name="Reykjavik" country="IS" lat="64.13548" lng="-21.89541" pop="118918"/>
    
    
    <City id="609" name="Siracusa" country="IT" lat="37.07542" lng="15.28664" pop="121605"/>
    
    
    <City id="610" name="Reggio Calabria" country="IT" lat="38.11047" lng="15.66129" pop="182455"/>
    
    
    <City id="611" name="Palermo" country="IT" lat="38.1166" lng="13.3636" pop="648260"/>
    
    
    <City id="612" name="Messina" country="IT" lat="38.19394" lng="15.55256" pop="219948"/>
    
    
    <City id="613" name="Catania" country="IT" lat="37.49223" lng="15.07041" pop="311584"/>
    
    
    <City id="614" name="Cagliari" country="IT" lat="39.23054" lng="9.11917" pop="149257"/>
    
    
    <City id="615" name="Vicenza" country="IT" lat="45.54672" lng="11.5475" pop="111980"/>
    
    
    <City id="616" name="Verona" country="IT" lat="45.43854" lng="10.9938" pop="258031"/>
    
    
    <City id="617" name="Varese" country="IT" lat="45.82058" lng="8.82511" pop="80588"/>
    
    
    <City id="618" name="Udine" country="IT" lat="46.0693" lng="13.23715" pop="100170"/>
    
    
    <City id="619" name="Trieste" country="IT" lat="45.64953" lng="13.77678" pop="204338"/>
    
    
    <City id="620" name="Treviso" country="IT" lat="45.66673" lng="12.2416" pop="85760"/>
    
    
    <City id="621" name="Trento" country="IT" lat="46.06787" lng="11.12108" pop="120709"/>
    
    
    <City id="622" name="Torre del Greco" country="IT" lat="40.78931" lng="14.36806" pop="85332"/>
    
    
    <City id="623" name="Turin" country="IT" lat="45.07049" lng="7.68682" pop="847287"/>
    
    
    <City id="624" name="Terni" country="IT" lat="42.56335" lng="12.64329" pop="111189"/>
    
    
    <City id="625" name="Taranto" country="IT" lat="40.46438" lng="17.24707" pop="198585"/>
    
    
    <City id="626" name="Sesto San Giovanni" country="IT" lat="45.53329" lng="9.22585" pop="81822"/>
    
    
    <City id="627" name="Sassari" country="IT" lat="40.72586" lng="8.55552" pop="91895"/>
    
    
    <City id="628" name="Salerno" country="IT" lat="40.67545" lng="14.79328" pop="125797"/>
    
    
    <City id="629" name="Rome" country="IT" lat="41.89193" lng="12.51133" pop="2318895"/>
    
    
    <City id="630" name="Rimini" country="IT" lat="44.05755" lng="12.56528" pop="148688"/>
    
    
    <City id="631" name="Reggio nell'Emilia" country="IT" lat="44.69825" lng="10.63125" pop="171944"/>
    
    
    <City id="632" name="Ravenna" country="IT" lat="44.41344" lng="12.20121" pop="80868"/>
    
    
    <City id="633" name="Quarto Oggiaro" country="IT" lat="45.51314" lng="9.14343" pop="182118"/>
    
    
    <City id="634" name="Prato" country="IT" lat="43.8805" lng="11.09699" pop="195089"/>
    
    
    <City id="635" name="Pozzuoli" country="IT" lat="40.84394" lng="14.0952" pop="81231"/>
    
    
    <City id="636" name="Pisa" country="IT" lat="43.70853" lng="10.4036" pop="109960"/>
    
    
    <City id="637" name="Piacenza" country="IT" lat="45.05242" lng="9.69342" pop="103607"/>
    
    
    <City id="638" name="Pescara" country="IT" lat="42.4584" lng="14.20283" pop="119554"/>
    
    
    <City id="639" name="Perugia" country="IT" lat="43.1122" lng="12.38878" pop="120137"/>
    
    
    <City id="640" name="Parma" country="IT" lat="44.79935" lng="10.32618" pop="198292"/>
    
    
    <City id="641" name="Padua" country="IT" lat="45.40797" lng="11.88586" pop="203725"/>
    
    
    <City id="642" name="Novara" country="IT" lat="45.44694" lng="8.62118" pop="101916"/>
    
    
    <City id="643" name="Naples" country="IT" lat="40.85216" lng="14.26811" pop="909048"/>
    
    
    <City id="644" name="Monza" country="IT" lat="45.58005" lng="9.27246" pop="124398"/>
    
    
    <City id="645" name="Modena" country="IT" lat="44.64783" lng="10.92539" pop="184732"/>
    
    
    <City id="646" name="Milan" country="IT" lat="45.46427" lng="9.18951" pop="1371498"/>
    
    
    <City id="647" name="Mestre" country="IT" lat="45.49167" lng="12.24538" pop="147662"/>
    
    
    <City id="648" name="Lucca" country="IT" lat="43.84369" lng="10.50447" pop="81748"/>
    
    
    <City id="649" name="Livorno" country="IT" lat="43.54427" lng="10.32615" pop="157017"/>
    
    
    <City id="650" name="Lido di Ostia" country="IT" lat="41.73212" lng="12.27654" pop="85301"/>
    
    
    <City id="651" name="Lecce" country="IT" lat="40.35481" lng="18.17244" pop="80695"/>
    
    
    <City id="652" name="La Spezia" country="IT" lat="44.103" lng="9.82375" pop="93288"/>
    
    
    <City id="653" name="Giugliano in Campania" country="IT" lat="40.92849" lng="14.20197" pop="80269"/>
    
    
    <City id="654" name="Genoa" country="IT" lat="44.40478" lng="8.94439" pop="580097"/>
    
    
    <City id="655" name="Forli" country="IT" lat="44.22177" lng="12.04144" pop="116696"/>
    
    
    <City id="656" name="Foggia" country="IT" lat="41.45845" lng="15.55188" pop="137032"/>
    
    
    <City id="657" name="Florence" country="IT" lat="43.77925" lng="11.24626" pop="367150"/>
    
    
    <City id="658" name="Ferrara" country="IT" lat="44.83804" lng="11.62057" pop="132009"/>
    
    
    <City id="659" name="Como" country="IT" lat="45.80819" lng="9.0832" pop="84808"/>
    
    
    <City id="660" name="Cesena" country="IT" lat="44.1391" lng="12.24315" pop="97137"/>
    
    
    <City id="661" name="Busto Arsizio" country="IT" lat="45.61128" lng="8.84914" pop="83405"/>
    
    
    <City id="662" name="Brindisi" country="IT" lat="40.63215" lng="17.93607" pop="87141"/>
    
    
    <City id="663" name="Brescia" country="IT" lat="45.53558" lng="10.21472" pop="200423"/>
    
    
    <City id="664" name="Bolzano" country="IT" lat="46.49067" lng="11.33982" pop="107436"/>
    
    
    <City id="665" name="Bologna" country="IT" lat="44.49381" lng="11.33875" pop="394843"/>
    
    
    <City id="666" name="Bergamo" country="IT" lat="45.69601" lng="9.66721" pop="121200"/>
    
    
    <City id="667" name="Barletta" country="IT" lat="41.31429" lng="16.28165" pop="93279"/>
    
    
    <City id="668" name="Bari" country="IT" lat="41.12066" lng="16.86982" pop="316491"/>
    
    
    <City id="669" name="Arezzo" country="IT" lat="43.46276" lng="11.88068" pop="100734"/>
    
    
    <City id="670" name="Andria" country="IT" lat="41.23117" lng="16.29797" pop="99784"/>
    
    
    <City id="671" name="Ancona" country="IT" lat="43.60717" lng="13.5103" pop="89994"/>
    
    
    <City id="672" name="Alessandria" country="IT" lat="44.90924" lng="8.61007" pop="92104"/>
    
    
    <City id="673" name="Acilia-Castel Fusano-Ostia Antica" country="IT" lat="41.76337" lng="12.33078" pop="129362"/>
    
    
    <City id="674" name="Campo di Marte" country="IT" lat="43.77693" lng="11.27707" pop="88588"/>
    
    
    <City id="675" name="Circoiscrizione II" country="IT" lat="45.05013" lng="7.64052" pop="141344"/>
    
    
    <City id="676" name="Circoiscrizione III" country="IT" lat="45.06279" lng="7.63071" pop="130709"/>
    
    
    <City id="677" name="Circoiscrizione IV" country="IT" lat="45.08125" lng="7.63188" pop="98787"/>
    
    
    <City id="678" name="Circoiscrizione V" country="IT" lat="45.10147" lng="7.65538" pop="126666"/>
    
    
    <City id="679" name="Circoiscrizione VI" country="IT" lat="45.1022" lng="7.70029" pop="107369"/>
    
    
    <City id="680" name="Circoiscrizione VII" country="IT" lat="45.07824" lng="7.69718" pop="89448"/>
    
    
    <City id="681" name="Circoiscrizione VIII" country="IT" lat="45.03789" lng="7.67174" pop="134028"/>
    
    
    <City id="682" name="Vilnius" country="LT" lat="54.68916" lng="25.2798" pop="542366"/>
    
    
    <City id="683" name="Siauliai" country="LT" lat="55.93333" lng="23.31667" pop="99462"/>
    
    
    <City id="684" name="Panevezys" country="LT" lat="55.73186" lng="24.35983" pop="85885"/>
    
    
    <City id="685" name="Klaipeda" country="LT" lat="55.7068" lng="21.13912" pop="172292"/>
    
    
    <City id="686" name="Kaunas" country="LT" lat="54.90156" lng="23.90909" pop="289380"/>
    
    
    <City id="687" name="Riga" country="LV" lat="56.946" lng="24.10589" pop="742572"/>
    
    
    <City id="688" name="Tiraspol" country="MD" lat="46.84275" lng="29.6284" pop="157000"/>
    
    
    <City id="689" name="Chisinau" country="MD" lat="47.00902" lng="28.85938" pop="635994"/>
    
    
    <City id="690" name="Bender" country="MD" lat="46.83158" lng="29.47671" pop="110175"/>
    
    
    <City id="691" name="Balti" country="MD" lat="47.76291" lng="27.92854" pop="125000"/>
    
    
    <City id="692" name="Podgorica" country="ME" lat="42.44124" lng="19.26309" pop="236852"/>
    
    
    <City id="693" name="Skopje" country="MK" lat="41.99646" lng="21.43141" pop="474889"/>
    
    
    <City id="694" name="Zwolle" country="NL" lat="52.5125" lng="6.09444" pop="129840"/>
    
    
    <City id="695" name="Zoetermeer" country="NL" lat="52.0575" lng="4.49306" pop="115845"/>
    
    
    <City id="696" name="Zaanstad" country="NL" lat="52.45313" lng="4.81356" pop="140085"/>
    
    
    <City id="697" name="Venlo" country="NL" lat="51.37" lng="6.16806" pop="101988"/>
    
    
    <City id="698" name="Utrecht" country="NL" lat="52.09083" lng="5.12222" pop="376435"/>
    
    
    <City id="699" name="Tilburg" country="NL" lat="51.55551" lng="5.0913" pop="221947"/>
    
    
    <City id="700" name="'s-Hertogenbosch" country="NL" lat="51.69917" lng="5.30417" pop="160783"/>
    
    
    <City id="701" name="The Hague" country="NL" lat="52.07667" lng="4.29861" pop="474292"/>
    
    
    <City id="702" name="Rotterdam" country="NL" lat="51.9225" lng="4.47917" pop="868135"/>
    
    
    <City id="703" name="Purmerend" country="NL" lat="52.505" lng="4.95972" pop="80117"/>
    
    
    <City id="704" name="Nijmegen" country="NL" lat="51.8425" lng="5.85278" pop="177359"/>
    
    
    <City id="705" name="Maastricht" country="NL" lat="50.84833" lng="5.68889" pop="122378"/>
    
    
    <City id="706" name="Leiden" country="NL" lat="52.15833" lng="4.49306" pop="119713"/>
    
    
    <City id="707" name="Leeuwarden" country="NL" lat="53.20271" lng="5.80973" pop="124481"/>
    
    
    <City id="708" name="Hoofddorp" country="NL" lat="52.3025" lng="4.68889" pop="132734"/>
    
    
    <City id="709" name="Hilversum" country="NL" lat="52.22333" lng="5.17639" pop="83640"/>
    
    
    <City id="710" name="Hengelo" country="NL" lat="52.26583" lng="6.79306" pop="82311"/>
    
    
    <City id="711" name="Heerlen" country="NL" lat="50.88365" lng="5.98154" pop="93084"/>
    
    
    <City id="712" name="Haarlem" country="NL" lat="52.38084" lng="4.63683" pop="162543"/>
    
    
    <City id="713" name="Groningen" country="NL" lat="53.21917" lng="6.56667" pop="244807"/>
    
    
    <City id="714" name="Enschede" country="NL" lat="52.21833" lng="6.89583" pop="153655"/>
    
    
    <City id="715" name="Eindhoven" country="NL" lat="51.44083" lng="5.47778" pop="235691"/>
    
    
    <City id="716" name="Dordrecht" country="NL" lat="51.81" lng="4.67361" pop="119260"/>
    
    
    <City id="717" name="Deventer" country="NL" lat="52.255" lng="6.16389" pop="97331"/>
    
    
    <City id="718" name="Delft" country="NL" lat="52.00667" lng="4.35556" pop="95060"/>
    
    
    <City id="719" name="Breda" country="NL" lat="51.58656" lng="4.77596" pop="184126"/>
    
    
    <City id="720" name="Arnhem" country="NL" lat="51.98" lng="5.91111" pop="162424"/>
    
    
    <City id="721" name="Apeldoorn" country="NL" lat="52.21" lng="5.96944" pop="136670"/>
    
    
    <City id="722" name="Amsterdam" country="NL" lat="52.37403" lng="4.88969" pop="741636"/>
    
    
    <City id="723" name="Amersfoort" country="NL" lat="52.155" lng="5.3875" pop="139914"/>
    
    
    <City id="724" name="Almere Stad" country="NL" lat="52.37025" lng="5.21413" pop="176432"/>
    
    
    <City id="725" name="Alkmaar" country="NL" lat="52.63167" lng="4.74861" pop="94853"/>
    
    
    <City id="726" name="Amsterdam-Zuidoost" country="NL" lat="52.3075" lng="4.97222" pop="84811"/>
    
    
    <City id="727" name="Trondheim" country="NO" lat="63.43049" lng="10.39506" pop="216518"/>
    
    
    <City id="728" name="Stavanger" country="NO" lat="58.97005" lng="5.73332" pop="148682"/>
    
    
    <City id="729" name="Sandnes" country="NO" lat="58.85244" lng="5.73521" pop="85386"/>
    
    
    <City id="730" name="Oslo" country="NO" lat="59.91273" lng="10.74609" pop="1082575"/>
    
    
    <City id="731" name="Lillestrom" country="NO" lat="59.95597" lng="11.04918" pop="89684"/>
    
    
    <City id="732" name="Kristiansand" country="NO" lat="58.14671" lng="7.9956" pop="117237"/>
    
    
    <City id="733" name="Fredrikstad" country="NO" lat="59.2181" lng="10.9298" pop="83761"/>
    
    
    <City id="734" name="Drammen" country="NO" lat="59.74389" lng="10.20449" pop="105042"/>
    
    
    <City id="735" name="Bergen" country="NO" lat="60.39299" lng="5.32415" pop="294029"/>
    
    
    <City id="736" name="Wola" country="PL" lat="52.23477" lng="20.96004" pop="140958"/>
    
    
    <City id="737" name="Warsaw" country="PL" lat="52.22977" lng="21.01178" pop="1702139"/>
    
    
    <City id="738" name="Tarnow" country="PL" lat="50.01381" lng="20.98698" pop="117799"/>
    
    
    <City id="739" name="Targowek" country="PL" lat="52.29185" lng="21.04845" pop="124279"/>
    
    
    <City id="740" name="Srodmiescie" country="PL" lat="52.22904" lng="21.01644" pop="99950"/>
    
    
    <City id="741" name="Rzeszow" country="PL" lat="50.04132" lng="21.99901" pop="198317"/>
    
    
    <City id="742" name="Radom" country="PL" lat="51.40253" lng="21.14714" pop="226794"/>
    
    
    <City id="743" name="Olsztyn" country="PL" lat="53.78376" lng="20.49272" pop="169793"/>
    
    
    <City id="744" name="Ochota" country="PL" lat="52.22096" lng="20.98526" pop="82774"/>
    
    
    <City id="745" name="Nowy Sacz" country="PL" lat="49.62177" lng="20.69705" pop="84376"/>
    
    
    <City id="746" name="Mokotow" country="PL" lat="52.1934" lng="21.03487" pop="217683"/>
    
    
    <City id="747" name="Lublin" country="PL" lat="51.25058" lng="22.57009" pop="336339"/>
    
    
    <City id="748" name="Kielce" country="PL" lat="50.87033" lng="20.62752" pop="192468"/>
    
    
    <City id="749" name="Bielany" country="PL" lat="52.29242" lng="20.93531" pop="131910"/>
    
    
    <City id="750" name="Bialystok" country="PL" lat="53.13333" lng="23.16433" pop="295683"/>
    
    
    <City id="751" name="Bialoleka" country="PL" lat="52.32127" lng="20.97204" pop="129106"/>
    
    
    <City id="752" name="Bemowo" country="PL" lat="52.2546" lng="20.90844" pop="123932"/>
    
    
    <City id="753" name="Zielona Gora" country="PL" lat="51.93548" lng="15.50643" pop="118433"/>
    
    
    <City id="754" name="Zabrze" country="PL" lat="50.32492" lng="18.78576" pop="192177"/>
    
    
    <City id="755" name="Wroclaw" country="PL" lat="51.10286" lng="17.03006" pop="672545"/>
    
    
    <City id="756" name="Wloclawek" country="PL" lat="52.64817" lng="19.0678" pop="120339"/>
    
    
    <City id="757" name="Walbrzych" country="PL" lat="50.77141" lng="16.28432" pop="127431"/>
    
    
    <City id="758" name="Tychy" country="PL" lat="50.13717" lng="18.96641" pop="130000"/>
    
    
    <City id="759" name="Torun" country="PL" lat="53.01375" lng="18.59814" pop="196935"/>
    
    
    <City id="760" name="Szczecin" country="PL" lat="53.42894" lng="14.55302" pop="395513"/>
    
    
    <City id="761" name="Sosnowiec" country="PL" lat="50.28682" lng="19.10385" pop="227295"/>
    
    
    <City id="762" name="Slupsk" country="PL" lat="54.46405" lng="17.02872" pop="98608"/>
    
    
    <City id="763" name="Rybnik" country="PL" lat="50.09713" lng="18.54179" pop="142510"/>
    
    
    <City id="764" name="Ruda Slaska" country="PL" lat="50.2584" lng="18.85632" pop="146189"/>
    
    
    <City id="765" name="Poznan" country="PL" lat="52.40692" lng="16.92993" pop="536151"/>
    
    
    <City id="766" name="Plock" country="PL" lat="52.54682" lng="19.70638" pop="127474"/>
    
    
    <City id="767" name="Piotrkow Trybunalski" country="PL" lat="51.40547" lng="19.70321" pop="80128"/>
    
    
    <City id="768" name="Opole" country="PL" lat="50.67119" lng="17.92604" pop="127676"/>
    
    
    <City id="769" name="Lodz" country="PL" lat="51.77058" lng="19.47395" pop="645693"/>
    
    
    <City id="770" name="Legnica" country="PL" lat="51.21006" lng="16.1619" pop="106033"/>
    
    
    <City id="771" name="Krakow" country="PL" lat="50.06143" lng="19.93658" pop="804237"/>
    
    
    <City id="772" name="Koszalin" country="PL" lat="54.19438" lng="16.17222" pop="107450"/>
    
    
    <City id="773" name="Konin" country="PL" lat="52.22338" lng="18.25121" pop="81258"/>
    
    
    <City id="774" name="Katowice" country="PL" lat="50.2597" lng="19.02173" pop="286960"/>
    
    
    <City id="775" name="Kalisz" country="PL" lat="51.76109" lng="18.09102" pop="108759"/>
    
    
    <City id="776" name="Jaworzno" country="PL" lat="50.20528" lng="19.27498" pop="96541"/>
    
    
    <City id="777" name="Jastrzebie Zdroj" country="PL" lat="49.95542" lng="18.57479" pop="95813"/>
    
    
    <City id="778" name="Grudziadz" country="PL" lat="53.48411" lng="18.75366" pop="92552"/>
    
    
    <City id="779" name="Gorzow Wielkopolski" country="PL" lat="52.73371" lng="15.22505" pop="114567"/>
    
    
    <City id="780" name="Gliwice" country="PL" lat="50.29761" lng="18.67658" pop="198835"/>
    
    
    <City id="781" name="Gdynia" country="PL" lat="54.51889" lng="18.53188" pop="257000"/>
    
    
    <City id="782" name="Gdansk" country="PL" lat="54.35227" lng="18.64912" pop="487371"/>
    
    
    <City id="783" name="Elblag" country="PL" lat="54.1522" lng="19.40884" pop="127558"/>
    
    
    <City id="784" name="Dabrowa Gornicza" country="PL" lat="50.33394" lng="19.20479" pop="116971"/>
    
    
    <City id="785" name="Czestochowa" country="PL" lat="50.79646" lng="19.12409" pop="248125"/>
    
    
    <City id="786" name="Chorzow" country="PL" lat="50.30582" lng="18.9742" pop="113430"/>
    
    
    <City id="787" name="Bytom" country="PL" lat="50.34802" lng="18.93282" pop="189186"/>
    
    
    <City id="788" name="Bydgoszcz" country="PL" lat="53.1235" lng="18.00762" pop="330038"/>
    
    
    <City id="789" name="Bielsko-Biala" country="PL" lat="49.82245" lng="19.04686" pop="176515"/>
    
    
    <City id="790" name="Ursynow" country="PL" lat="52.15051" lng="21.05041" pop="149775"/>
    
    
    <City id="791" name="Praga Polnoc" country="PL" lat="52.25443" lng="21.03472" pop="93192"/>
    
    
    <City id="792" name="Praga Poludnie" country="PL" lat="52.24424" lng="21.08545" pop="179836"/>
    
    
    <City id="793" name="Psie Pole" country="PL" lat="51.14595" lng="17.03519" pop="95615"/>
    
    
    <City id="794" name="Setubal" country="PT" lat="38.5244" lng="-8.8882" pop="118166"/>
    
    
    <City id="795" name="Queluz" country="PT" lat="38.75657" lng="-9.25451" pop="103399"/>
    
    
    <City id="796" name="Lisbon" country="PT" lat="38.72509" lng="-9.1498" pop="517802"/>
    
    
    <City id="797" name="Leiria" country="PT" lat="39.74362" lng="-8.80705" pop="128640"/>
    
    
    <City id="798" name="Funchal" country="PT" lat="32.66568" lng="-16.92547" pop="105795"/>
    
    
    <City id="799" name="Cacem" country="PT" lat="38.76698" lng="-9.29793" pop="93982"/>
    
    
    <City id="800" name="Amadora" country="PT" lat="38.75382" lng="-9.23083" pop="178858"/>
    
    
    <City id="801" name="Viseu" country="PT" lat="40.66165" lng="-7.90905" pop="103502"/>
    
    
    <City id="802" name="Porto" country="PT" lat="41.1485" lng="-8.61097" pop="252687"/>
    
    
    <City id="803" name="Coimbra" country="PT" lat="40.20686" lng="-8.41996" pop="140796"/>
    
    
    <City id="804" name="Braga" country="PT" lat="41.5514" lng="-8.42311" pop="193324"/>
    
    
    <City id="805" name="Aveiro" country="PT" lat="40.64575" lng="-8.64643" pop="80880"/>
    
    
    <City id="806" name="Targu Mures" country="RO" lat="46.54245" lng="24.55747" pop="212752"/>
    
    
    <City id="807" name="Timisoara" country="RO" lat="45.75372" lng="21.22571" pop="250849"/>
    
    
    <City id="808" name="Suceava" country="RO" lat="47.63333" lng="26.25" pop="84308"/>
    
    
    <City id="809" name="Sibiu" country="RO" lat="45.8" lng="24.15" pop="134309"/>
    
    
    <City id="810" name="Satu Mare" country="RO" lat="47.79926" lng="22.86255" pop="112490"/>
    
    
    <City id="811" name="Ramnicu Valcea" country="RO" lat="45.1" lng="24.36667" pop="93151"/>
    
    
    <City id="812" name="Resita" country="RO" lat="45.30083" lng="21.88917" pop="81228"/>
    
    
    <City id="813" name="Ploiesti" country="RO" lat="44.95" lng="26.01667" pop="180540"/>
    
    
    <City id="814" name="Pitesti" country="RO" lat="44.85" lng="24.86667" pop="141275"/>
    
    
    <City id="815" name="Piatra Neamt" country="RO" lat="46.91667" lng="26.33333" pop="102688"/>
    
    
    <City id="816" name="Oradea" country="RO" lat="47.0458" lng="21.91833" pop="183105"/>
    
    
    <City id="817" name="Iasi" country="RO" lat="47.16667" lng="27.6" pop="378954"/>
    
    
    <City id="818" name="Galati" country="RO" lat="45.43687" lng="28.05028" pop="217851"/>
    
    
    <City id="819" name="Craiova" country="RO" lat="44.31667" lng="23.8" pop="234140"/>
    
    
    <City id="820" name="Constanta" country="RO" lat="44.18073" lng="28.63432" pop="317832"/>
    
    
    <City id="821" name="Cluj-Napoca" country="RO" lat="46.76667" lng="23.6" pop="286598"/>
    
    
    <City id="822" name="Buzau" country="RO" lat="45.15" lng="26.83333" pop="103481"/>
    
    
    <City id="823" name="Bucharest" country="RO" lat="44.43225" lng="26.10626" pop="1877155"/>
    
    
    <City id="824" name="Brasov" country="RO" lat="45.64861" lng="25.60613" pop="253200"/>
    
    
    <City id="825" name="Braila" country="RO" lat="45.27152" lng="27.97429" pop="154686"/>
    
    
    <City id="826" name="Botosani" country="RO" lat="47.75" lng="26.66667" pop="90010"/>
    
    
    <City id="827" name="Baia Mare" country="RO" lat="47.65729" lng="23.56808" pop="108759"/>
    
    
    <City id="828" name="Bacau" country="RO" lat="46.56718" lng="26.91384" pop="136087"/>
    
    
    <City id="829" name="Arad" country="RO" lat="46.18333" lng="21.31667" pop="169065"/>
    
    
    <City id="830" name="Sector 1" country="RO" lat="44.49239" lng="26.04831" pop="225453"/>
    
    
    <City id="831" name="Sector 2" country="RO" lat="44.4528" lng="26.13321" pop="290507"/>
    
    
    <City id="832" name="Sector 3" country="RO" lat="44.4234" lng="26.16874" pop="385439"/>
    
    
    <City id="833" name="Sector 4" country="RO" lat="44.37571" lng="26.12085" pop="287828"/>
    
    
    <City id="834" name="Sector 5" country="RO" lat="44.38808" lng="26.07144" pop="271575"/>
    
    
    <City id="835" name="Sector 6" country="RO" lat="44.43579" lng="26.01649" pop="367760"/>
    
    
    <City id="836" name="Zemun" country="RS" lat="44.8458" lng="20.40116" pop="155591"/>
    
    
    <City id="837" name="Novi Pazar" country="RS" lat="43.13667" lng="20.51222" pop="85996"/>
    
    
    <City id="838" name="Nis" country="RS" lat="43.32472" lng="21.90333" pop="250000"/>
    
    
    <City id="839" name="Leskovac" country="RS" lat="42.99806" lng="21.94611" pop="94758"/>
    
    
    <City id="840" name="Kraljevo" country="RS" lat="43.72583" lng="20.68944" pop="82846"/>
    
    
    <City id="841" name="Kragujevac" country="RS" lat="44.01667" lng="20.91667" pop="147473"/>
    
    
    <City id="842" name="Cacak" country="RS" lat="43.89139" lng="20.34972" pop="117072"/>
    
    
    <City id="843" name="Belgrade" country="RS" lat="44.80401" lng="20.46513" pop="1273651"/>
    
    
    <City id="844" name="Subotica" country="RS" lat="46.1" lng="19.66667" pop="100000"/>
    
    
    <City id="845" name="Novi Sad" country="RS" lat="45.25167" lng="19.83694" pop="215400"/>
    
    
    <City id="846" name="Umea" country="SE" lat="63.82842" lng="20.25972" pop="130224"/>
    
    
    <City id="847" name="Vaesteras" country="SE" lat="59.61617" lng="16.55276" pop="127799"/>
    
    
    <City id="848" name="Uppsala" country="SE" lat="59.85882" lng="17.63889" pop="177074"/>
    
    
    <City id="849" name="Stockholm" country="SE" lat="59.32938" lng="18.06871" pop="1515017"/>
    
    
    <City id="850" name="Sollentuna" country="SE" lat="59.42804" lng="17.95093" pop="139606"/>
    
    
    <City id="851" name="Soedermalm" country="SE" lat="59.31278" lng="18.07577" pop="127323"/>
    
    
    <City id="852" name="OErebro" country="SE" lat="59.27412" lng="15.2066" pop="155989"/>
    
    
    <City id="853" name="Norrkoeping" country="SE" lat="58.59419" lng="16.1826" pop="93765"/>
    
    
    <City id="854" name="Malmoe" country="SE" lat="55.60587" lng="13.00073" pop="362133"/>
    
    
    <City id="855" name="Lund" country="SE" lat="55.70584" lng="13.19321" pop="87244"/>
    
    
    <City id="856" name="Linkoeping" country="SE" lat="58.41086" lng="15.62157" pop="166673"/>
    
    
    <City id="857" name="Joenkoeping" country="SE" lat="57.78145" lng="14.15618" pop="112766"/>
    
    
    <City id="858" name="Huddinge" country="SE" lat="59.23705" lng="17.98192" pop="90182"/>
    
    
    <City id="859" name="Helsingborg" country="SE" lat="56.04673" lng="12.69437" pop="104250"/>
    
    
    <City id="860" name="Goeteborg" country="SE" lat="57.70716" lng="11.96679" pop="608462"/>
    
    
    <City id="861" name="Maribor" country="SI" lat="46.55583" lng="15.64593" pop="96209"/>
    
    
    <City id="862" name="Ljubljana" country="SI" lat="46.05108" lng="14.50513" pop="272220"/>
    
    
    <City id="863" name="Presov" country="SK" lat="48.99923" lng="21.2355" pop="82927"/>
    
    
    <City id="864" name="Kosice" country="SK" lat="48.71441" lng="21.25802" pop="225044"/>
    
    
    <City id="865" name="Zilina" country="SK" lat="49.22315" lng="18.73941" pop="81219"/>
    
    
    <City id="866" name="Petrzalka" country="SK" lat="48.12331" lng="17.12866" pop="112380"/>
    
    
    <City id="867" name="Nitra" country="SK" lat="48.30763" lng="18.08453" pop="86329"/>
    
    
    <City id="868" name="Bratislava" country="SK" lat="48.14816" lng="17.10674" pop="423737"/>
    
    
    <City id="869" name="Zhytomyr" country="UA" lat="50.26235" lng="28.67913" pop="261624"/>
    
    
    <City id="870" name="Zaporizhzhya" country="UA" lat="47.85167" lng="35.11714" pop="710052"/>
    
    
    <City id="871" name="Yevpatoriya" country="UA" lat="45.20091" lng="33.36655" pop="107040"/>
    
    
    <City id="872" name="Vyhurivshchyna-Troyeshchyna" country="UA" lat="50.51137" lng="30.60251" pop="240000"/>
    
    
    <City id="873" name="Vinnytsya" country="UA" lat="49.2322" lng="28.46871" pop="430091"/>
    
    
    <City id="874" name="Uzhhorod" country="UA" lat="48.6242" lng="22.2947" pop="115449"/>
    
    
    <City id="875" name="Uman" country="UA" lat="48.7501" lng="30.21944" pop="81525"/>
    
    
    <City id="876" name="Ternopil" country="UA" lat="49.55404" lng="25.59067" pop="225238"/>
    
    
    <City id="877" name="Siverskodonetsk" country="UA" lat="48.94628" lng="38.48624" pop="99067"/>
    
    
    <City id="878" name="Sumy" country="UA" lat="50.91741" lng="34.79906" pop="256474"/>
    
    
    <City id="879" name="Slovyansk" country="UA" lat="48.84974" lng="37.59739" pop="105141"/>
    
    
    <City id="880" name="Simferopol" country="UA" lat="44.95719" lng="34.11079" pop="336460"/>
    
    
    <City id="881" name="Sykhiv" country="UA" lat="49.79427" lng="24.06284" pop="151131"/>
    
    
    <City id="882" name="Sevastopol" country="UA" lat="44.60795" lng="33.52134" pop="547820"/>
    
    
    <City id="883" name="Rivne" country="UA" lat="50.62036" lng="26.23695" pop="243873"/>
    
    
    <City id="884" name="Poltava" country="UA" lat="49.58925" lng="34.55367" pop="279593"/>
    
    
    <City id="885" name="Podil" country="UA" lat="50.46936" lng="30.51627" pop="198123"/>
    
    
    <City id="886" name="Voznesenskyi" country="UA" lat="47.93161" lng="37.62971" pop="85399"/>
    
    
    <City id="887" name="Pavlohrad" country="UA" lat="48.53214" lng="35.86878" pop="101430"/>
    
    
    <City id="888" name="Odesa" country="UA" lat="46.48572" lng="30.74383" pop="1010537"/>
    
    
    <City id="889" name="Nyzhnodniprovsk" country="UA" lat="48.47546" lng="35.1167" pop="160123"/>
    
    
    <City id="890" name="Nikopol" country="UA" lat="47.56826" lng="34.39126" pop="105160"/>
    
    
    <City id="891" name="Mykolayiv" country="UA" lat="46.97625" lng="31.99296" pop="470011"/>
    
    
    <City id="892" name="Mukachevo" country="UA" lat="48.44248" lng="22.718" pop="85569"/>
    
    
    <City id="893" name="Melitopol" country="UA" lat="46.84735" lng="35.38196" pop="148851"/>
    
    
    <City id="894" name="Mariupol" country="UA" lat="47.09514" lng="37.54131" pop="230000"/>
    
    
    <City id="895" name="Makiyivka" country="UA" lat="48.04782" lng="37.92576" pop="338968"/>
    
    
    <City id="896" name="Lviv" country="UA" lat="49.83826" lng="24.02324" pop="717273"/>
    
    
    <City id="897" name="Lutsk" country="UA" lat="50.75784" lng="25.35024" pop="215986"/>
    
    
    <City id="898" name="Luhansk" country="UA" lat="48.56814" lng="39.30553" pop="397677"/>
    
    
    <City id="899" name="Lysychansk" country="UA" lat="48.90421" lng="38.44094" pop="93340"/>
    
    
    <City id="900" name="Kyiv" country="UA" lat="50.45466" lng="30.5238" pop="2952301"/>
    
    
    <City id="901" name="Kryvyy Rih" country="UA" lat="47.90572" lng="33.39404" pop="603904"/>
    
    
    <City id="902" name="Kremenchuk" country="UA" lat="49.06253" lng="33.40484" pop="217710"/>
    
    
    <City id="903" name="Kramatorsk" country="UA" lat="48.73106" lng="37.56779" pop="147145"/>
    
    
    <City id="904" name="Konotop" country="UA" lat="51.24032" lng="33.20263" pop="84787"/>
    
    
    <City id="905" name="Kropyvnytskyi" country="UA" lat="48.50834" lng="32.26618" pop="219676"/>
    
    
    <City id="906" name="Khmelnytskyi" country="UA" lat="49.41835" lng="26.97936" pop="274452"/>
    
    
    <City id="907" name="Kharkiv" country="UA" lat="49.98177" lng="36.25475" pop="1421125"/>
    
    
    <City id="908" name="Kerch" country="UA" lat="45.35675" lng="36.47542" pop="148932"/>
    
    
    <City id="909" name="Kamyanets-Podilskyi" country="UA" lat="48.67882" lng="26.58516" pop="97908"/>
    
    
    <City id="910" name="Ivano-Frankivsk" country="UA" lat="48.92312" lng="24.71248" pop="238196"/>
    
    
    <City id="911" name="Horlivka" country="UA" lat="48.29986" lng="38.01709" pop="239828"/>
    
    
    <City id="912" name="Donetsk" country="UA" lat="48.023" lng="37.80224" pop="901645"/>
    
    
    <City id="913" name="Dnipro" country="UA" lat="48.46664" lng="35.04066" pop="968502"/>
    
    
    <City id="914" name="Kamyanske" country="UA" lat="48.51716" lng="34.60617" pop="226845"/>
    
    
    <City id="915" name="Chernivtsi" country="UA" lat="48.29045" lng="25.93241" pop="264298"/>
    
    
    <City id="916" name="Chernihiv" country="UA" lat="51.50541" lng="31.28656" pop="282747"/>
    
    
    <City id="917" name="Cherkasy" country="UA" lat="49.44452" lng="32.05738" pop="269836"/>
    
    
    <City id="918" name="Brovary" country="UA" lat="50.51809" lng="30.80671" pop="109806"/>
    
    
    <City id="919" name="Bohuniya" country="UA" lat="50.27691" lng="28.60962" pop="147324"/>
    
    
    <City id="920" name="Bila Tserkva" country="UA" lat="49.8004" lng="30.12851" pop="207273"/>
    
    
    <City id="921" name="Berdyansk" country="UA" lat="46.75578" lng="36.78815" pop="106311"/>
    
    
    <City id="922" name="Bakhmut" country="UA" lat="48.59419" lng="37.99886" pop="80500"/>
    
    
    <City id="923" name="Alchevsk" country="UA" lat="48.46893" lng="38.81669" pop="106062"/>
    
    
    <City id="924" name="Saltivka" country="UA" lat="50.02207" lng="36.34901" pop="400000"/>
    
    
    <City id="925" name="Obolon" country="UA" lat="50.5132" lng="30.5055" pop="317300"/>
    
    
    <City id="926" name="Cheremushky" country="UA" lat="46.43251" lng="30.71151" pop="120000"/>
    
    
    <City id="927" name="Avtozavodskyi" country="UA" lat="49.09753" lng="33.43206" pop="157382"/>
    
    
    <City id="928" name="Oleksiyivka" country="UA" lat="50.04516" lng="36.19322" pop="100500"/>
    
    
    <City id="929" name="Holosiyiv" country="UA" lat="50.34433" lng="30.55178" pop="251021"/>
    
    
    <City id="930" name="Pechersk" country="UA" lat="50.44441" lng="30.52348" pop="165360"/>
    
    
    <City id="931" name="Svyatoshyn" country="UA" lat="50.46341" lng="30.34612" pop="340399"/>
    
    
    <City id="932" name="Dniprovskyi" country="UA" lat="50.45366" lng="30.60146" pop="357900"/>
    
    
    <City id="933" name="Desna" country="UA" lat="50.52207" lng="30.68228" pop="368500"/>
    
    
    <City id="934" name="Solomyansk" country="UA" lat="50.42838" lng="30.45211" pop="280400"/>
    
    
    <City id="935" name="Shevchenkivskyi" country="UA" lat="50.46408" lng="30.46576" pop="220077"/>
    
    
    <City id="936" name="Fortechnyi" country="UA" lat="48.49865" lng="32.25365" pop="167451"/>
    
    
    <City id="937" name="Podilskyi" country="UA" lat="48.50357" lng="32.28035" pop="86652"/>
    
    
    <City id="938" name="Bohodukhivskyi" country="UA" lat="47.96688" lng="37.86255" pop="90600"/>
    
    
    <City id="939" name="Yuzivskyi" country="UA" lat="48.0" lng="37.80006" pop="94228"/>
    
    
    <City id="940" name="Kalynivskyi" country="UA" lat="48.00741" lng="37.85378" pop="103249"/>
    
    
    <City id="941" name="Kyivskyi" country="UA" lat="48.04646" lng="37.77571" pop="139177"/>
    
    
    <City id="942" name="Rutchenkivskyi" country="UA" lat="47.97597" lng="37.69677" pop="168029"/>
    
    
    <City id="943" name="Oleksandrivskyi" country="UA" lat="47.96788" lng="37.80335" pop="100330"/>
    
    
    <City id="944" name="Chumakivskyi" country="UA" lat="47.95671" lng="37.94194" pop="103005"/>
    
    
    <City id="945" name="Shevchenko" country="UA" lat="49.5645" lng="34.53873" pop="147600"/>
    
    
    <City id="946" name="Rayon KTZ" country="UA" lat="49.94349" lng="36.36959" pop="200000"/>
    
    
    <City id="947" name="Pravyi Bereh" country="UA" lat="47.11498" lng="37.58519" pop="352088"/>
    
    
    <City id="948" name="Pozniaky" country="UA" lat="50.40259" lng="30.62352" pop="104400"/>
    
    
    <City id="949" name="Darnytsya" country="UA" lat="50.41596" lng="30.69534" pop="343384"/>
    
    
    <City id="950" name="Voskresenka" country="UA" lat="50.48481" lng="30.6032" pop="84200"/>
    
    
    <City id="951" name="Tatarka" country="UA" lat="50.46941" lng="30.48649" pop="90000"/>
    
    
    <City id="952" name="Shulyavka" country="UA" lat="50.45356" lng="30.4531" pop="100000"/>
    
    
    <City id="953" name="Lukyanivka" country="UA" lat="50.46642" lng="30.47591" pop="90000"/>
    
    
    <City id="954" name="Mykilska Borshchahivka" country="UA" lat="50.42638" lng="30.37442" pop="127400"/>
    
    
    <City id="955" name="Kharkivskyi Masyv" country="UA" lat="50.40848" lng="30.66006" pop="93700"/>
    
    
    <City id="956" name="Smolyanskyi" country="UA" lat="48.01435" lng="37.73586" pop="116779"/>
    
    
    <City id="957" name="Tsentralno-Miskyi" country="UA" lat="48.06167" lng="37.97157" pop="94417"/>
    
    
    <City id="958" name="Hirnytskyi" country="UA" lat="48.0211" lng="37.96914" pop="107216"/>
    
    
    <City id="959" name="Berestovskyi" country="UA" lat="48.04426" lng="37.87654" pop="80671"/>
    
    
    <City id="960" name="Verhunskyi" country="UA" lat="48.58573" lng="39.37158" pop="185593"/>
    
    
    <City id="961" name="Vilkhivskyi" country="UA" lat="48.54327" lng="39.28201" pop="126340"/>
    
    
    <City id="962" name="Kovpakivskyi" country="UA" lat="50.92508" lng="34.79484" pop="142447"/>
    
    
    <City id="963" name="Zarichnyi" country="UA" lat="50.90376" lng="34.80933" pop="150694"/>
    
    
    <City id="964" name="Kindrativskyi" country="UA" lat="48.30282" lng="38.05475" pop="101565"/>
    
    
    <City id="965" name="Tsentralnyi" country="UA" lat="47.09833" lng="37.54838" pop="179582"/>
    
    
    <City id="966" name="Kalmiuskyi" country="UA" lat="47.11046" lng="37.54375" pop="101498"/>
    
    
    <City id="967" name="Livoberezhnyi" country="UA" lat="47.1093" lng="37.64306" pop="122175"/>
    
    
    <City id="968" name="Novozavodskyi" country="UA" lat="51.4893" lng="31.25634" pop="179600"/>
    
    
    <City id="969" name="Korolyov" country="UA" lat="50.24487" lng="28.70013" pop="114034"/>
