<?xml version="1.0" ?>
<GraphData>
  <Cities>
    <City id="1" name="Ras Al Khaimah" country="AE" lat="25.78953" lng="55.9432" pop="351943"/>
    <City id="2" name="Dubai" country="AE" lat="25.07725" lng="55.30927" pop="3790000"/>
    <City id="3" name="Dayrah" country="AE" lat="25.27143" lng="55.30207" pop="400000"/>
    <City id="4" name="Sharjah" country="AE" lat="25.3342" lng="55.41221" pop="1800000"/>
    <City id="5" name="Al Ain City" country="AE" lat="24.19167" lng="55.76056" pop="846747"/>
    <City id="6" name="Ajman" country="AE" lat="25.40177" lng="55.47878" pop="490035"/>
    <City id="7" name="Abu Dhabi" country="AE" lat="24.45118" lng="54.39696" pop="1807000"/>
    <City id="8" name="Dubai Investments Park" country="AE" lat="25.00827" lng="55.15682" pop="160000"/>
    <City id="9" name="Jebel Ali" country="AE" lat="25.00255" lng="55.10811" pop="210000"/>
    <City id="10" name="Musaffah" country="AE" lat="24.35893" lng="54.48267" pop="243341"/>
    <City id="11" name="Business Bay" country="AE" lat="25.18544" lng="55.26969" pop="191000"/>
    <City id="12" name="Mazar-e Sharif" country="AF" lat="36.70904" lng="67.11087" pop="523300"/>
    <City id="13" name="Kunduz" country="AF" lat="36.72895" lng="68.857" pop="161902"/>
    <City id="14" name="Kandahar" country="AF" lat="31.61332" lng="65.71013" pop="523300"/>
    <City id="15" name="Kabul" country="AF" lat="34.52813" lng="69.17233" pop="4434550"/>
    <City id="16" name="Jalalabad" country="AF" lat="34.42647" lng="70.45153" pop="271900"/>
    <City id="17" name="Herat" country="AF" lat="34.34817" lng="62.19967" pop="574300"/>
    <City id="18" name="Ghazni" country="AF" lat="33.55391" lng="68.42096" pop="141000"/>
    <City id="19" name="Tirana" country="AL" lat="41.32744" lng="19.81866" pop="418495"/>
    <City id="20" name="Durres" country="AL" lat="41.32355" lng="19.45469" pop="195920"/>
    <City id="21" name="Yerevan" country="AM" lat="40.17765" lng="44.5126" pop="1144700"/>
    <City id="22" name="Nor Nork" country="AM" lat="40.19661" lng="44.5669" pop="137300"/>
    <City id="23" name="Malatia-Sebastia" country="AM" lat="40.17396" lng="44.4457" pop="150500"/>
    <City id="24" name="Kentron" country="AM" lat="40.17806" lng="44.51303" pop="133000"/>
    <City id="25" name="Shengavit" country="AM" lat="40.1557" lng="44.4779" pop="140600"/>
    <City id="26" name="Saurimo" country="AO" lat="-9.66078" lng="20.39155" pop="393000"/>
    <City id="27" name="Dundo" country="AO" lat="-7.36643" lng="20.81557" pop="177604"/>
    <City id="28" name="Chitato" country="AO" lat="-7.3" lng="20.73333" pop="246880"/>
    <City id="29" name="Uige" country="AO" lat="-7.60874" lng="15.06131" pop="322531"/>
    <City id="30" name="Soyo" country="AO" lat="-6.1349" lng="12.36894" pop="200920"/>
    <City id="31" name="N'dalatando" country="AO" lat="-9.29782" lng="14.91162" pop="161584"/>
    <City id="32" name="Mbanza Kongo" country="AO" lat="-6.26667" lng="14.23833" pop="148000"/>
    <City id="33" name="Malanje" country="AO" lat="-9.54015" lng="16.34096" pop="455000"/>
    <City id="34" name="Maianga" country="AO" lat="-8.84693" lng="13.23698" pop="319000"/>
    <City id="35" name="Luanda" country="AO" lat="-8.83682" lng="13.23432" pop="2776168"/>
    <City id="36" name="Cabinda" country="AO" lat="-5.56198" lng="12.19476" pop="550000"/>
    <City id="37" name="Cazenga" country="AO" lat="-8.83796" lng="13.28399" pop="424528"/>
    <City id="38" name="Talatona" country="AO" lat="-8.91783" lng="13.18562" pop="500000"/>
    <City id="39" name="Sumbe" country="AO" lat="-11.20605" lng="13.84371" pop="205832"/>
    <City id="40" name="Mossamedes" country="AO" lat="-15.19611" lng="12.15222" pop="255000"/>
    <City id="41" name="Menongue" country="AO" lat="-14.6585" lng="17.69099" pop="251178"/>
    <City id="42" name="Luena" country="AO" lat="-11.78333" lng="19.91667" pop="273675"/>
    <City id="43" name="Lubango" country="AO" lat="-14.91717" lng="13.4925" pop="600751"/>
    <City id="44" name="Lobito" country="AO" lat="-12.3644" lng="13.53601" pop="357950"/>
    <City id="45" name="Cuito" country="AO" lat="-12.38333" lng="16.93333" pop="355423"/>
    <City id="46" name="Huambo" country="AO" lat="-12.77611" lng="15.73917" pop="595304"/>
    <City id="47" name="Caala" country="AO" lat="-12.8525" lng="15.56056" pop="130000"/>
    <City id="48" name="Benguela" country="AO" lat="-12.57674" lng="13.40268" pop="555124"/>
    <City id="49" name="Ingombota" country="AO" lat="-8.81806" lng="13.22889" pop="370000"/>
    <City id="50" name="Rangel" country="AO" lat="-8.82644" lng="13.26285" pop="261000"/>
    <City id="51" name="Sambizanga" country="AO" lat="-8.78883" lng="13.27506" pop="244000"/>
    <City id="52" name="Vienna" country="AT" lat="48.20849" lng="16.37208" pop="1691468"/>
    <City id="53" name="Salzburg" country="AT" lat="47.79941" lng="13.04399" pop="157245"/>
    <City id="54" name="Linz" country="AT" lat="48.30639" lng="14.28611" pop="204846"/>
    <City id="55" name="Innsbruck" country="AT" lat="47.26266" lng="11.39454" pop="132493"/>
    <City id="56" name="Graz" country="AT" lat="47.06733" lng="15.44197" pop="303270"/>
    <City id="57" name="Floridsdorf" country="AT" lat="48.25" lng="16.4" pop="162779"/>
    <City id="58" name="Favoriten" country="AT" lat="48.16116" lng="16.38233" pop="201882"/>
    <City id="59" name="Donaustadt" country="AT" lat="48.2333" lng="16.46002" pop="187007"/>
    <City id="60" name="Lankaran" country="AZ" lat="38.75428" lng="48.85062" pop="240300"/>
    <City id="61" name="Tovuz" country="AZ" lat="40.99249" lng="45.62838" pop="177200"/>
    <City id="62" name="Sumqayit" country="AZ" lat="40.58972" lng="49.66861" pop="358675"/>
    <City id="63" name="Ganja" country="AZ" lat="40.68157" lng="46.36134" pop="335600"/>
    <City id="64" name="Baku" country="AZ" lat="40.37767" lng="49.89201" pop="2351300"/>
    <City id="65" name="Zenica" country="BA" lat="44.20169" lng="17.90397" pop="164423"/>
    <City id="66" name="Tuzla" country="BA" lat="44.53842" lng="18.66709" pop="142486"/>
    <City id="67" name="Sarajevo" country="BA" lat="43.84864" lng="18.35644" pop="696731"/>
    <City id="68" name="Banja Luka" country="BA" lat="44.77879" lng="17.20629" pop="221106"/>
    <City id="69" name="Tungi" country="BD" lat="23.89154" lng="90.40232" pop="337579"/>
    <City id="70" name="Sylhet" country="BD" lat="24.89904" lng="91.87198" pop="237000"/>
    <City id="71" name="Jamalpur" country="BD" lat="24.91965" lng="89.94812" pop="167900"/>
    <City id="72" name="Shibganj" country="BD" lat="25.00146" lng="89.32266" pop="378701"/>
    <City id="73" name="Narsingdi" country="BD" lat="23.92298" lng="90.71768" pop="281080"/>
    <City id="74" name="Rajshahi" country="BD" lat="24.374" lng="88.60114" pop="763580"/>
    <City id="75" name="Narayanganj" country="BD" lat="23.61352" lng="90.50298" pop="223622"/>
    <City id="76" name="Nagarpur" country="BD" lat="24.05783" lng="89.87696" pop="238422"/>
    <City id="77" name="Mymensingh" country="BD" lat="24.75636" lng="90.40646" pop="225126"/>
    <City id="78" name="Comilla" country="BD" lat="23.46186" lng="91.18503" pop="1030000"/>
    <City id="79" name="Rangpur" country="BD" lat="25.74664" lng="89.25166" pop="1031388"/>
    <City id="80" name="Kushtia" country="BD" lat="23.9028" lng="89.11943" pop="135724"/>
    <City id="81" name="Ramna Maidan" country="BD" lat="23.73333" lng="90.4" pop="143677"/>
    <City id="82" name="Dhaka" country="BD" lat="23.7104" lng="90.40744" pop="10356500"/>
    <City id="83" name="Bandarban" country="BD" lat="22.19534" lng="92.21946" pop="495272"/>
    <City id="84" name="Bagerhat" country="BD" lat="22.65657" lng="89.79123" pop="266388"/>
    <City id="85" name="Sonargaon" country="BD" lat="23.65" lng="90.61667" pop="130000"/>
    <City id="86" name="Par Naogaon" country="BD" lat="24.80418" lng="88.94875" pop="192464"/>
    <City id="87" name="Nagar Naluakot" country="BD" lat="24.15608" lng="90.7728" pop="273000"/>
    <City id="88" name="Mohammadpur" country="BD" lat="24.89843" lng="88.52844" pop="527571"/>
    <City id="89" name="Maijdi" country="BD" lat="22.86667" lng="91.1" pop="132185"/>
    <City id="90" name="Kafrul" country="BD" lat="23.78822" lng="90.37359" pop="339734"/>
    <City id="91" name="Gazipur" country="BD" lat="23.99844" lng="90.42234" pop="2674697"/>
    <City id="92" name="Dinajpur" country="BD" lat="25.62745" lng="88.63779" pop="206234"/>
    <City id="93" name="Chattogram" country="BD" lat="22.3384" lng="91.83168" pop="3920222"/>
    <City id="94" name="Chandpur" country="BD" lat="23.22714" lng="90.65433" pop="203000"/>
    <City id="95" name="Bhatara" country="BD" lat="23.8" lng="90.45" pop="324300"/>
    <City id="96" name="Ashuganj City" country="BD" lat="24.04016" lng="91.0117" pop="210356"/>
    <City id="97" name="Cox's Bazar" country="BD" lat="21.43973" lng="92.00955" pop="253788"/>
    <City id="98" name="Khulna" country="BD" lat="22.80979" lng="89.56439" pop="1500689"/>
    <City id="99" name="Barishal" country="BD" lat="22.70497" lng="90.37013" pop="202242"/>
    <City id="100" name="Jessore" country="BD" lat="23.16971" lng="89.21371" pop="243987"/>
    <City id="101" name="Brahmanbaria" country="BD" lat="23.97464" lng="91.11228" pop="264326"/>
    <City id="102" name="Pabna" country="BD" lat="24.00644" lng="89.2372" pop="186781"/>
    <City id="103" name="Tangail" country="BD" lat="24.24984" lng="89.91655" pop="180144"/>
    <City id="104" name="Bogra" country="BD" lat="24.85098" lng="89.37108" pop="210000"/>
    <City id="105" name="Nawabganj" country="BD" lat="24.59025" lng="88.27444" pop="142361"/>
    <City id="106" name="Savar" country="BD" lat="23.84858" lng="90.25002" pop="286008"/>
    <City id="107" name="Hathazari" country="BD" lat="22.50515" lng="91.81339" pop="498179"/>
    <City id="108" name="Saidpur" country="BD" lat="25.77769" lng="88.89169" pop="199422"/>
    <City id="109" name="Puthia" country="BD" lat="24.36537" lng="88.83431" pop="159406"/>
    <City id="110" name="Natore" country="BD" lat="24.41112" lng="88.98673" pop="369138"/>
    <City id="111" name="Pallabi" country="BD" lat="23.825" lng="90.37" pop="597574"/>
    <City id="112" name="Karnaphuli" country="BD" lat="22.69056" lng="92.23472" pop="203697"/>
    <City id="113" name="Paltan" country="BD" lat="23.73625" lng="90.41426" pop="184492"/>
    <City id="114" name="Mirpur Model Thana" country="BD" lat="23.80931" lng="90.36093" pop="546503"/>
    <City id="115" name="Motijheel" country="BD" lat="23.72772" lng="90.41919" pop="202308"/>
    <City id="116" name="Schaerbeek" country="BE" lat="50.86935" lng="4.37737" pop="132761"/>
    <City id="117" name="Liege" country="BE" lat="50.63373" lng="5.56749" pop="195278"/>
    <City id="118" name="Gent" country="BE" lat="51.05" lng="3.71667" pop="265086"/>
    <City id="119" name="Charleroi" country="BE" lat="50.41136" lng="4.44448" pop="200132"/>
    <City id="120" name="Brussels" country="BE" lat="50.85045" lng="4.34878" pop="1019022"/>
    <City id="121" name="Antwerpen" country="BE" lat="51.22047" lng="4.40026" pop="529247"/>
    <City id="122" name="Anderlecht" country="BE" lat="50.83619" lng="4.31454" pop="160553"/>
    <City id="123" name="Saaba" country="BF" lat="12.37136" lng="-1.41468" pop="136011"/>
    <City id="124" name="Ouagadougou" country="BF" lat="12.36566" lng="-1.53388" pop="2415266"/>
    <City id="125" name="Koudougou" country="BF" lat="12.25188" lng="-2.36694" pop="160239"/>
    <City id="126" name="Bobo-Dioulasso" country="BF" lat="11.18064" lng="-4.29489" pop="904920"/>
    <City id="127" name="Varna" country="BG" lat="43.21912" lng="27.91024" pop="318737"/>
    <City id="128" name="Sofia" country="BG" lat="42.69751" lng="23.32415" pop="1152556"/>
    <City id="129" name="Plovdiv" country="BG" lat="42.15387" lng="24.75001" pop="329489"/>
    <City id="130" name="Burgas" country="BG" lat="42.50651" lng="27.46886" pop="210646"/>
    <City id="131" name="Madinat Hamad" country="BH" lat="26.11528" lng="50.50694" pop="133550"/>
    <City id="132" name="Al Muharraq" country="BH" lat="26.25722" lng="50.61194" pop="176583"/>
    <City id="133" name="Manama" country="BH" lat="26.22787" lng="50.58565" pop="147074"/>
    <City id="134" name="Bujumbura" country="BI" lat="-3.38193" lng="29.36142" pop="769317"/>
    <City id="135" name="Porto-Novo" country="BJ" lat="6.49646" lng="2.60359" pop="264320"/>
    <City id="136" name="Parakou" country="BJ" lat="9.33716" lng="2.63031" pop="255478"/>
    <City id="137" name="Godome" country="BJ" lat="6.38948" lng="2.34581" pop="253262"/>
    <City id="138" name="Cotonou" country="BJ" lat="6.36536" lng="2.41833" pop="679012"/>
    <City id="139" name="Abomey-Calavi" country="BJ" lat="6.44852" lng="2.35566" pop="385755"/>
    <City id="140" name="Gaborone" country="BW" lat="-24.65451" lng="25.90859" pop="246325"/>
    <City id="141" name="Vitebsk" country="BY" lat="55.1904" lng="30.2049" pop="358395"/>
    <City id="142" name="Minsk" country="BY" lat="53.90019" lng="27.56653" pop="1742124"/>
    <City id="143" name="Mahilyow" country="BY" lat="53.90876" lng="30.34044" pop="353110"/>
    <City id="144" name="Hrodna" country="BY" lat="53.6758" lng="23.82887" pop="361115"/>
    <City id="145" name="Homyel'" country="BY" lat="52.4345" lng="30.9754" pop="501102"/>
    <City id="146" name="Brest" country="BY" lat="52.10894" lng="23.71749" pop="344470"/>
    <City id="147" name="Barysaw" country="BY" lat="54.2279" lng="28.505" pop="135696"/>
    <City id="148" name="Baranovichi" country="BY" lat="53.13253" lng="26.00774" pop="171361"/>
    <City id="149" name="Bobruysk" country="BY" lat="53.14636" lng="29.20552" pop="207351"/>
    <City id="150" name="Uvira" country="CD" lat="-3.39534" lng="29.13779" pop="407092"/>
    <City id="151" name="Tshikapa" country="CD" lat="-6.41621" lng="20.79995" pop="634529"/>
    <City id="152" name="Mwene-Ditu" country="CD" lat="-7.00906" lng="23.45278" pop="189177"/>
    <City id="153" name="Mbuji-Mayi" country="CD" lat="-6.13603" lng="23.58979" pop="2101332"/>
    <City id="154" name="Kisangani" country="CD" lat="0.51528" lng="25.19099" pop="1181788"/>
    <City id="155" name="Kindu" country="CD" lat="-2.94373" lng="25.92237" pop="234651"/>
    <City id="156" name="Kananga" country="CD" lat="-5.89624" lng="22.41659" pop="1247168"/>
    <City id="157" name="Kamina" country="CD" lat="-8.73508" lng="24.99798" pop="200184"/>
    <City id="158" name="Kalemie" country="CD" lat="-5.94749" lng="29.19471" pop="160961"/>
    <City id="159" name="Kabinda" country="CD" lat="-6.13791" lng="24.48179" pop="219396"/>
    <City id="160" name="Isiro" country="CD" lat="2.77391" lng="27.61603" pop="255409"/>
    <City id="161" name="Goma" country="CD" lat="-1.67409" lng="29.22845" pop="432587"/>
    <City id="162" name="Gandajika" country="CD" lat="-6.74504" lng="23.95328" pop="208051"/>
    <City id="163" name="Butembo" country="CD" lat="0.14164" lng="29.29117" pop="286242"/>
    <City id="164" name="Bunia" country="CD" lat="1.55941" lng="30.25224" pop="399282"/>
    <City id="165" name="Bumba" country="CD" lat="2.18771" lng="22.46827" pop="154586"/>
    <City id="166" name="Bukavu" country="CD" lat="-2.49077" lng="28.84281" pop="816811"/>
    <City id="167" name="Beni" country="CD" lat="0.49113" lng="29.47306" pop="140731"/>
    <City id="168" name="Lubumbashi" country="CD" lat="-11.66089" lng="27.47938" pop="2221925"/>
    <City id="169" name="Likasi" country="CD" lat="-10.98303" lng="26.7384" pop="635768"/>
    <City id="170" name="Kolwezi" country="CD" lat="-10.71484" lng="25.46674" pop="790248"/>
    <City id="171" name="Kipushi" country="CD" lat="-11.76097" lng="27.25135" pop="169635"/>
    <City id="172" name="Mbanza-Ngungu" country="CD" lat="-5.25837" lng="14.85838" pop="142773"/>
    <City id="173" name="Mbandaka" country="CD" lat="0.04865" lng="18.26034" pop="455011"/>
    <City id="174" name="Matadi" country="CD" lat="-5.83861" lng="13.46306" pop="425662"/>
    <City id="175" name="Kinshasa" country="CD" lat="-4.32758" lng="15.31357" pop="16000000"/>
    <City id="176" name="Kikwit" country="CD" lat="-5.04098" lng="18.81619" pop="509367"/>
    <City id="177" name="Gemena" country="CD" lat="3.25651" lng="19.77234" pop="197159"/>
    <City id="178" name="Boma" country="CD" lat="-5.85098" lng="13.05364" pop="297009"/>
    <City id="179" name="Bandundu Province" country="CD" lat="-3.31687" lng="17.38063" pop="202904"/>
    <City id="180" name="Masina" country="CD" lat="-4.38361" lng="15.39139" pop="485167"/>
    <City id="181" name="Mwene" country="CD" lat="-9.81697" lng="22.87023" pop="295683"/>
    <City id="182" name="Bimbo" country="CF" lat="4.25671" lng="18.41583" pop="348802"/>
    <City id="183" name="Begoua" country="CF" lat="4.45437" lng="18.53475" pop="264067"/>
    <City id="184" name="Bangui" country="CF" lat="4.36122" lng="18.55496" pop="812407"/>
    <City id="185" name="Pointe-Noire" country="CG" lat="-4.77609" lng="11.86352" pop="1032000"/>
    <City id="186" name="Brazzaville" country="CG" lat="-4.26613" lng="15.28318" pop="1982000"/>
    <City id="187" name="Zuerich" country="CH" lat="47.36667" lng="8.55" pop="415367"/>
    <City id="188" name="Lausanne" country="CH" lat="46.516" lng="6.63282" pop="139111"/>
    <City id="189" name="Geneve" country="CH" lat="46.20222" lng="6.14569" pop="201741"/>
    <City id="190" name="Basel" country="CH" lat="47.55839" lng="7.57327" pop="177595"/>
    <City id="191" name="Yamoussoukro" country="CI" lat="6.82055" lng="-5.27674" pop="275686"/>
    <City id="192" name="Sinfra" country="CI" lat="6.62103" lng="-5.91144" pop="245226"/>
    <City id="193" name="San-Pedro" country="CI" lat="4.74851" lng="-6.6363" pop="390654"/>
    <City id="194" name="Man" country="CI" lat="7.41251" lng="-7.55383" pop="241969"/>
    <City id="195" name="Koumassi" country="CI" lat="5.29716" lng="-3.96753" pop="412282"/>
    <City id="196" name="Korhogo" country="CI" lat="9.45803" lng="-5.62961" pop="440926"/>
    <City id="197" name="Gagnoa" country="CI" lat="6.13193" lng="-5.9506" pop="277044"/>
    <City id="198" name="Divo" country="CI" lat="5.83739" lng="-5.35723" pop="136627"/>
    <City id="199" name="Daloa" country="CI" lat="6.87735" lng="-6.45022" pop="421871"/>
    <City id="200" name="Dabou" country="CI" lat="5.32556" lng="-4.37685" pop="138083"/>
    <City id="201" name="Bouake" country="CI" lat="7.69385" lng="-5.03031" pop="832371"/>
    <City id="202" name="Bondoukou" country="CI" lat="8.0402" lng="-2.80003" pop="141568"/>
    <City id="203" name="Anyama" country="CI" lat="5.49462" lng="-4.05183" pop="133905"/>
    <City id="204" name="Abobo" country="CI" lat="5.41613" lng="-4.0159" pop="1340083"/>
    <City id="205" name="Abidjan" country="CI" lat="5.35444" lng="-4.00167" pop="6321017"/>
    <City id="206" name="Abengourou" country="CI" lat="6.72972" lng="-3.49639" pop="130810"/>
    <City id="207" name="Marcory" country="CI" lat="5.31198" lng="-3.99363" pop="214061"/>
    <City id="208" name="Soubre" country="CI" lat="5.78377" lng="-6.59388" pop="131181"/>
    <City id="209" name="Yaounde" country="CM" lat="3.86667" lng="11.51667" pop="1299369"/>
    <City id="210" name="Nkongsamba" country="CM" lat="4.9547" lng="9.9404" pop="162309"/>
    <City id="211" name="Ngaoundere" country="CM" lat="7.32765" lng="13.58472" pop="238196"/>
    <City id="212" name="Maroua" country="CM" lat="10.59095" lng="14.31593" pop="314122"/>
    <City id="213" name="Limbe" country="CM" lat="4.02356" lng="9.20607" pop="131381"/>
    <City id="214" name="Kumba" country="CM" lat="4.6363" lng="9.4469" pop="225046"/>
    <City id="215" name="Kousseri" country="CM" lat="12.07689" lng="15.03063" pop="139024"/>
    <City id="216" name="Foumban" country="CM" lat="5.72662" lng="10.89865" pop="130287"/>
    <City id="217" name="Douala" country="CM" lat="4.04827" lng="9.70428" pop="1338082"/>
    <City id="218" name="Buea" country="CM" lat="4.15342" lng="9.24231" pop="140533"/>
    <City id="219" name="Bertoua" country="CM" lat="4.57728" lng="13.68459" pop="137993"/>
    <City id="220" name="Bamenda" country="CM" lat="5.9597" lng="10.14597" pop="420445"/>
    <City id="221" name="Bafoussam" country="CM" lat="5.47775" lng="10.41759" pop="373268"/>
    <City id="222" name="Jiuquan" country="CN" lat="39.74318" lng="98.51736" pop="428346"/>
    <City id="223" name="Kashgar" country="CN" lat="39.46718" lng="75.98675" pop="506640"/>
    <City id="224" name="Jiayuguan" country="CN" lat="39.81121" lng="98.28618" pop="231853"/>
    <City id="225" name="Gujangbagh" country="CN" lat="37.10927" lng="79.93433" pop="408894"/>
    <City id="226" name="Yushu" country="CN" lat="33.00118" lng="97.00893" pop="141308"/>
    <City id="227" name="Baoshan" country="CN" lat="25.11626" lng="99.16366" pop="935618"/>
    <City id="228" name="Artux" country="CN" lat="39.70842" lng="76.17971" pop="285000"/>
    <City id="229" name="Xinyuan" country="CN" lat="43.42649" lng="83.24959" pop="282718"/>
    <City id="230" name="Wujiaqu" country="CN" lat="44.16279" lng="87.52174" pop="154400"/>
    <City id="231" name="UEruemqi" country="CN" lat="43.80096" lng="87.60046" pop="3029372"/>
    <City id="232" name="Turpan" country="CN" lat="42.94769" lng="89.17886" pop="273385"/>
    <City id="233" name="Tacheng" country="CN" lat="46.74535" lng="82.95847" pop="161037"/>
    <City id="234" name="Shihezi" country="CN" lat="44.3023" lng="86.03694" pop="572772"/>
    <City id="235" name="Korla" country="CN" lat="41.76055" lng="86.15231" pop="549324"/>
    <City id="236" name="Karamay" country="CN" lat="45.58473" lng="84.88724" pop="261445"/>
    <City id="237" name="Ghulja" country="CN" lat="43.91515" lng="81.32151" pop="269158"/>
    <City id="238" name="Hami" country="CN" lat="42.83393" lng="93.50601" pop="246373"/>
    <City id="239" name="Dunhuang" country="CN" lat="40.16667" lng="94.68333" pop="186027"/>
    <City id="240" name="Changji" country="CN" lat="44.00782" lng="87.30461" pop="198776"/>
    <City id="241" name="Jinshanlu" country="CN" lat="47.8505" lng="88.13286" pop="190064"/>
    <City id="242" name="Aqsu" country="CN" lat="41.18418" lng="80.27921" pop="535657"/>
    <City id="243" name="Zunyi" country="CN" lat="27.68667" lng="106.90722" pop="2037775"/>
    <City id="244" name="Zoucheng" country="CN" lat="35.40056" lng="116.96556" pop="277400"/>
    <City id="245" name="Ziyang" country="CN" lat="30.12108" lng="104.64811" pop="905729"/>
    <City id="246" name="Zitong" country="CN" lat="30.1782" lng="105.82991" pop="212819"/>
    <City id="247" name="Zigong" country="CN" lat="29.34162" lng="104.77689" pop="1262064"/>
    <City id="248" name="Zhuzhou" country="CN" lat="27.83333" lng="113.15" pop="1129687"/>
    <City id="249" name="Zhumadian" country="CN" lat="32.97944" lng="114.02944" pop="721670"/>
    <City id="250" name="Zhucheng" country="CN" lat="35.99472" lng="119.3975" pop="499285"/>
    <City id="251" name="Zhoukou" country="CN" lat="33.63333" lng="114.63333" pop="505171"/>
    <City id="252" name="Zhongwei" country="CN" lat="37.51129" lng="105.19067" pop="1174600"/>
    <City id="253" name="Zhicheng" country="CN" lat="30.29556" lng="111.50472" pop="159383"/>
    <City id="254" name="Zhenzhou" country="CN" lat="32.28034" lng="119.16999" pop="176006"/>
    <City id="255" name="Zhenping" country="CN" lat="33.03457" lng="112.22763" pop="181528"/>
    <City id="256" name="Zhenjiang" country="CN" lat="32.21086" lng="119.45508" pop="950516"/>
    <City id="257" name="Zhengzhou" country="CN" lat="34.75778" lng="113.64861" pop="4253913"/>
    <City id="258" name="Zhengding" country="CN" lat="38.14501" lng="114.56556" pop="193524"/>
    <City id="259" name="Yongji" country="CN" lat="34.86611" lng="110.44028" pop="452000"/>
    <City id="260" name="Zhaotong" country="CN" lat="27.31667" lng="103.71667" pop="787845"/>
    <City id="261" name="Zhaoqing" country="CN" lat="23.04893" lng="112.46091" pop="1553109"/>
    <City id="262" name="Zhanjiang" country="CN" lat="21.23391" lng="110.38749" pop="1400709"/>
    <City id="263" name="Zhangzhou" country="CN" lat="24.51333" lng="117.65556" pop="589831"/>
    <City id="264" name="Zhangye" country="CN" lat="38.93417" lng="100.45167" pop="507433"/>
    <City id="265" name="Zibo" country="CN" lat="36.79056" lng="118.06333" pop="3129228"/>
    <City id="266" name="Anyang" country="CN" lat="36.096" lng="114.38278" pop="1146839"/>
    <City id="267" name="Zhabei" country="CN" lat="31.25861" lng="121.45972" pop="840000"/>
    <City id="268" name="Zaozhuang" country="CN" lat="34.86472" lng="117.55417" pop="899753"/>
    <City id="269" name="Zaoyang" country="CN" lat="32.12722" lng="112.75417" pop="184509"/>
    <City id="270" name="Kunshan" country="CN" lat="31.37762" lng="120.95431" pop="2092496"/>
    <City id="271" name="Jinghong" country="CN" lat="22.00265" lng="100.7697" pop="205523"/>
    <City id="272" name="Pizhou" country="CN" lat="34.31139" lng="117.95028" pop="343421"/>
    <City id="273" name="Yunfu" country="CN" lat="22.92787" lng="112.03809" pop="2612800"/>
    <City id="274" name="Yuncheng" country="CN" lat="35.02306" lng="110.99278" pop="680036"/>
    <City id="275" name="Yulin" country="CN" lat="22.6305" lng="110.14686" pop="1056743"/>
    <City id="276" name="Yuci" country="CN" lat="37.68028" lng="112.73194" pop="235929"/>
    <City id="277" name="Qianjiang" country="CN" lat="30.421" lng="112.8919" pop="179079"/>
    <City id="278" name="Heyuan" country="CN" lat="23.73333" lng="114.68333" pop="463907"/>
    <City id="279" name="Yongzhou" country="CN" lat="26.42389" lng="111.61306" pop="1020715"/>
    <City id="280" name="Yongchuan" country="CN" lat="29.35376" lng="105.89392" pop="192954"/>
    <City id="281" name="Yong'an" country="CN" lat="31.01894" lng="109.45949" pop="144314"/>
    <City id="282" name="Yingtan" country="CN" lat="28.23333" lng="117.0" pop="214229"/>
    <City id="283" name="Chengzhong" country="CN" lat="30.94454" lng="113.55284" pop="265886"/>
    <City id="284" name="Yinchuan" country="CN" lat="38.46806" lng="106.27306" pop="1487579"/>
    <City id="285" name="Qingzhou" country="CN" lat="36.69667" lng="118.47972" pop="236406"/>
    <City id="286" name="Yichun" country="CN" lat="27.83333" lng="114.4" pop="1045952"/>
    <City id="287" name="Yixing" country="CN" lat="31.36059" lng="119.82016" pop="1285785"/>
    <City id="288" name="Yichang" country="CN" lat="30.71444" lng="111.28472" pop="1350150"/>
    <City id="289" name="Yibin" country="CN" lat="28.7593" lng="104.63994" pop="836340"/>
    <City id="290" name="Yanzhou" country="CN" lat="35.55278" lng="116.82861" pop="254788"/>
    <City id="291" name="Yantai" country="CN" lat="37.47649" lng="121.44081" pop="2227733"/>
    <City id="292" name="Yangzhou" country="CN" lat="32.39722" lng="119.43583" pop="1584237"/>
    <City id="293" name="Yangshuo" country="CN" lat="24.78081" lng="110.48967" pop="300000"/>
    <City id="294" name="Zhangjiagang" country="CN" lat="31.865" lng="120.53889" pop="1432044"/>
    <City id="295" name="Yangquan" country="CN" lat="37.8575" lng="113.56333" pop="731228"/>
    <City id="296" name="Yangpu" country="CN" lat="31.26193" lng="121.51904" pop="1210800"/>
    <City id="297" name="Yancheng" country="CN" lat="33.3575" lng="120.1573" pop="1615717"/>
    <City id="298" name="Yan'an" country="CN" lat="36.59889" lng="109.49167" pop="475234"/>
    <City id="299" name="Ya'an" country="CN" lat="29.98521" lng="102.999" pop="612056"/>
    <City id="300" name="Tongshan" country="CN" lat="34.18045" lng="117.15707" pop="329661"/>
    <City id="301" name="Shangrao" country="CN" lat="28.45179" lng="117.94287" pop="1116486"/>
    <City id="302" name="Xuhui" country="CN" lat="31.19594" lng="121.44709" pop="1109800"/>
    <City id="303" name="Xuchang" country="CN" lat="34.03189" lng="113.86299" pop="1265536"/>
    <City id="304" name="Xuancheng" country="CN" lat="30.9525" lng="118.75528" pop="774332"/>
    <City id="305" name="Xiuying" country="CN" lat="20.00073" lng="110.29359" pop="290000"/>
    <City id="306" name="Xinzhou" country="CN" lat="38.40917" lng="112.73333" pop="544683"/>
    <City id="307" name="Xinyu" country="CN" lat="27.80429" lng="114.93335" pop="839488"/>
    <City id="308" name="Xinyang" country="CN" lat="32.12278" lng="114.06556" pop="1230042"/>
    <City id="309" name="Xinxiang" country="CN" lat="35.19033" lng="113.80151" pop="1047088"/>
    <City id="310" name="Xintai" country="CN" lat="35.90056" lng="117.75194" pop="222459"/>
    <City id="311" name="Xinji" country="CN" lat="37.92595" lng="115.21907" pop="145911"/>
    <City id="312" name="Xining" country="CN" lat="36.62554" lng="101.75739" pop="1677177"/>
    <City id="313" name="Xingtai" country="CN" lat="37.06217" lng="114.49272" pop="798770"/>
    <City id="314" name="Ankang" country="CN" lat="32.68" lng="109.01722" pop="870126"/>
    <City id="315" name="Xindi" country="CN" lat="29.81667" lng="113.46667" pop="175761"/>
    <City id="316" name="Xinyi" country="CN" lat="34.38424" lng="118.34617" pop="300511"/>
    <City id="317" name="Sanshui" country="CN" lat="23.15486" lng="112.89161" pop="153714"/>
    <City id="318" name="Xichang" country="CN" lat="27.89642" lng="102.26341" pop="481796"/>
    <City id="319" name="Xiaogan" country="CN" lat="30.92689" lng="113.92221" pop="908266"/>
    <City id="320" name="Xianyang" country="CN" lat="34.33778" lng="108.70261" pop="1034081"/>
    <City id="321" name="Xiantao" country="CN" lat="30.3708" lng="113.44294" pop="239406"/>
    <City id="322" name="Xianning" country="CN" lat="29.84347" lng="114.32201" pop="512517"/>
    <City id="323" name="Zhuhai" country="CN" lat="22.27694" lng="113.56778" pop="2207090"/>
    <City id="324" name="Xiangtan" country="CN" lat="27.85" lng="112.9" pop="959303"/>
    <City id="325" name="Xiangyang" country="CN" lat="32.0422" lng="112.14479" pop="1294733"/>
    <City id="326" name="Xi'an" country="CN" lat="34.25833" lng="108.92861" pop="9600000"/>
    <City id="327" name="Xiamen" country="CN" lat="24.47979" lng="118.08187" pop="4617251"/>
    <City id="328" name="Wuzhou" country="CN" lat="23.48054" lng="111.28848" pop="761948"/>
    <City id="329" name="Wuzhong" country="CN" lat="37.9867" lng="106.201" pop="7202654"/>
    <City id="330" name="Wuxue" country="CN" lat="29.85058" lng="115.5525" pop="220661"/>
    <City id="331" name="Wuxi" country="CN" lat="31.56887" lng="120.28857" pop="4396835"/>
    <City id="332" name="Dongyang" country="CN" lat="29.26778" lng="120.22528" pop="130387"/>
    <City id="333" name="Changde" country="CN" lat="29.03205" lng="111.69844" pop="1457419"/>
    <City id="334" name="Wuhu" country="CN" lat="31.35259" lng="118.42947" pop="1598165"/>
    <City id="335" name="Wuhan" country="CN" lat="30.58333" lng="114.26667" pop="10392693"/>
    <City id="336" name="Wuhai" country="CN" lat="39.68442" lng="106.81583" pop="218427"/>
    <City id="337" name="Wugang" country="CN" lat="26.7279" lng="110.63198" pop="132457"/>
    <City id="338" name="Wenzhou" country="CN" lat="27.99942" lng="120.66682" pop="2650000"/>
    <City id="339" name="Wenchang" country="CN" lat="19.55158" lng="110.80279" pop="560894"/>
    <City id="340" name="Weinan" country="CN" lat="34.50355" lng="109.50891" pop="1199290"/>
    <City id="341" name="Weihai" country="CN" lat="37.50914" lng="122.11356" pop="844310"/>
    <City id="342" name="Weifang" country="CN" lat="36.71" lng="119.10194" pop="2044028"/>
    <City id="343" name="Wanxian" country="CN" lat="30.81601" lng="108.37407" pop="859662"/>
    <City id="344" name="Wanning" country="CN" lat="18.79931" lng="110.3841" pop="545992"/>
    <City id="345" name="Wafangdian" country="CN" lat="39.61833" lng="122.00806" pop="454338"/>
    <City id="346" name="Huangshan" country="CN" lat="29.71139" lng="118.3125" pop="460786"/>
    <City id="347" name="Tongzhou" country="CN" lat="39.90395" lng="116.66183" pop="163326"/>
    <City id="348" name="Fuding" country="CN" lat="27.32734" lng="120.21399" pop="192352"/>
    <City id="349" name="Tongling" country="CN" lat="30.95" lng="117.78333" pop="402062"/>
    <City id="350" name="Tianshui" country="CN" lat="34.57952" lng="105.74238" pop="1212791"/>
    <City id="351" name="Tianjin" country="CN" lat="39.14222" lng="117.17667" pop="11090314"/>
    <City id="352" name="Taozhou" country="CN" lat="30.90641" lng="119.40865" pop="146610"/>
    <City id="353" name="Tangshan" country="CN" lat="39.64381" lng="118.18319" pop="3372102"/>
    <City id="354" name="Tanghe" country="CN" lat="32.68545" lng="112.83234" pop="278055"/>
    <City id="355" name="Tanggu" country="CN" lat="39.02111" lng="117.64694" pop="535298"/>
    <City id="356" name="Taizhou" country="CN" lat="32.49069" lng="119.90812" pop="1607108"/>
    <City id="357" name="Taiyuan" country="CN" lat="37.86944" lng="112.56028" pop="4303673"/>
    <City id="358" name="Taishan" country="CN" lat="22.25135" lng="112.7799" pop="145440"/>
    <City id="359" name="Taicang" country="CN" lat="31.44778" lng="121.09389" pop="831113"/>
    <City id="360" name="Tai'an" country="CN" lat="36.18528" lng="117.12" pop="1735425"/>
    <City id="361" name="Suzhou" country="CN" lat="33.63611" lng="116.97889" pop="1647642"/>
    <City id="362" name="Suqian" country="CN" lat="33.94917" lng="118.29583" pop="1437685"/>
    <City id="363" name="Suizhou" country="CN" lat="31.71111" lng="113.36306" pop="618582"/>
    <City id="364" name="Suicheng" country="CN" lat="33.8963" lng="117.93307" pop="256665"/>
    <City id="365" name="Suining" country="CN" lat="30.50802" lng="105.57332" pop="656760"/>
    <City id="366" name="Songjiang" country="CN" lat="31.03443" lng="121.22326" pop="1973500"/>
    <City id="367" name="Songcheng" country="CN" lat="26.88194" lng="120.00111" pop="165730"/>
    <City id="368" name="Pu'er" country="CN" lat="22.78863" lng="100.97481" pop="296565"/>
    <City id="369" name="Shuozhou" country="CN" lat="39.31583" lng="112.4225" pop="433700"/>
    <City id="370" name="Shuizhai" country="CN" lat="23.92961" lng="115.76499" pop="140493"/>
    <City id="371" name="Laixi" country="CN" lat="36.85917" lng="120.52694" pop="341470"/>
    <City id="372" name="Shouguang" country="CN" lat="36.88" lng="118.7375" pop="473620"/>
    <City id="373" name="Huinong" country="CN" lat="39.23333" lng="106.76944" pop="136570"/>
    <City id="374" name="Shiyan" country="CN" lat="32.6475" lng="110.77806" pop="3460000"/>
    <City id="375" name="Shiqiao" country="CN" lat="22.9464" lng="113.35769" pop="135308"/>
    <City id="376" name="Shiqi" country="CN" lat="22.51682" lng="113.38521" pop="342306"/>
    <City id="377" name="Tongchuanshi" country="CN" lat="35.07474" lng="109.08495" pop="223603"/>
    <City id="378" name="Shijiazhuang" country="CN" lat="38.04139" lng="114.47861" pop="3938513"/>
    <City id="379" name="Shenzhen" country="CN" lat="22.54554" lng="114.0683" pop="17494398"/>
    <City id="380" name="Shaoxing" country="CN" lat="30.00237" lng="120.57864" pop="2300000"/>
    <City id="381" name="Shaoguan" country="CN" lat="24.8" lng="113.58333" pop="1028460"/>
    <City id="382" name="Shanwei" country="CN" lat="22.78199" lng="115.3475" pop="491766"/>
    <City id="383" name="Shantou" country="CN" lat="23.35489" lng="116.67876" pop="3838900"/>
    <City id="384" name="Shangluo" country="CN" lat="33.86667" lng="109.93056" pop="531696"/>
    <City id="385" name="Shangqiu" country="CN" lat="34.4143" lng="115.65613" pop="1859723"/>
    <City id="386" name="Shanghai" country="CN" lat="31.22222" lng="121.45806" pop="24874500"/>
    <City id="387" name="Sanya" country="CN" lat="18.25435" lng="109.50947" pop="1031396"/>
    <City id="388" name="Sanming" country="CN" lat="26.24861" lng="117.61861" pop="602166"/>
    <City id="389" name="Sanmenxia" country="CN" lat="34.78081" lng="111.19287" pop="669307"/>
    <City id="390" name="Sanhe" country="CN" lat="39.98049" lng="117.06887" pop="965075"/>
    <City id="391" name="Changsha" country="CN" lat="22.38124" lng="112.68492" pop="688242"/>
    <City id="392" name="Rui'an" country="CN" lat="27.77605" lng="120.65859" pop="927383"/>
    <City id="393" name="Jieyang" country="CN" lat="23.5418" lng="116.36581" pop="1899394"/>
    <City id="394" name="Quzhou" country="CN" lat="28.95944" lng="118.86861" pop="902767"/>
    <City id="395" name="Qujing" country="CN" lat="25.48333" lng="103.78333" pop="1408500"/>
    <City id="396" name="Quanzhou" country="CN" lat="24.91389" lng="118.58583" pop="1469157"/>
    <City id="397" name="Qinzhou" country="CN" lat="21.98247" lng="108.65061" pop="1296300"/>
    <City id="398" name="Qinhuangdao" country="CN" lat="39.94104" lng="119.58936" pop="759718"/>
    <City id="399" name="Yizhou" country="CN" lat="24.5" lng="108.66667" pop="155872"/>
    <City id="400" name="Jinjiang" country="CN" lat="24.81978" lng="118.57415" pop="1416151"/>
    <City id="401" name="Qingpu" country="CN" lat="31.15394" lng="121.11408" pop="1271424"/>
    <City id="402" name="Huai'an" country="CN" lat="33.58861" lng="119.01917" pop="2494013"/>
    <City id="403" name="Qingdao" country="CN" lat="36.06488" lng="120.38042" pop="7172451"/>
    <City id="404" name="Qingyuan" country="CN" lat="23.7" lng="113.03333" pop="1738424"/>
    <City id="405" name="Qibao" country="CN" lat="31.15267" lng="121.35688" pop="283352"/>
    <City id="406" name="Puyang" country="CN" lat="29.45679" lng="119.88872" pop="3590000"/>
    <City id="407" name="Putuo" country="CN" lat="31.251" lng="121.3897" pop="1239100"/>
    <City id="408" name="Putian" country="CN" lat="25.43944" lng="119.01028" pop="1539389"/>
    <City id="409" name="Puqi" country="CN" lat="29.71667" lng="113.88333" pop="132891"/>
    <City id="410" name="Pudong" country="CN" lat="31.23995" lng="121.50094" pop="5681512"/>
    <City id="411" name="Pingxiang" country="CN" lat="27.61672" lng="113.85353" pop="893550"/>
    <City id="412" name="Pingliang" country="CN" lat="35.53917" lng="106.68611" pop="504848"/>
    <City id="413" name="Pingdu" country="CN" lat="36.78444" lng="119.94639" pop="542234"/>
    <City id="414" name="Pingdingshan" country="CN" lat="33.73091" lng="113.31554" pop="979130"/>
    <City id="415" name="Pengze" country="CN" lat="29.89885" lng="116.54572" pop="350000"/>
    <City id="416" name="Pengpu" country="CN" lat="31.2855" lng="121.4367" pop="152725"/>
    <City id="417" name="Peicheng" country="CN" lat="34.73611" lng="116.92472" pop="195363"/>
    <City id="418" name="Guang'an" country="CN" lat="30.47413" lng="106.63696" pop="858159"/>
    <City id="419" name="Ning'er" country="CN" lat="23.04053" lng="101.03683" pop="162711"/>
    <City id="420" name="Ningbo" country="CN" lat="29.87819" lng="121.54945" pop="3731203"/>
    <City id="421" name="Nianbo" country="CN" lat="36.48" lng="102.41639" pop="260184"/>
    <City id="422" name="Neijiang" country="CN" lat="29.58354" lng="105.06216" pop="1251095"/>
    <City id="423" name="Nanyang" country="CN" lat="33.00524" lng="112.54659" pop="1811812"/>
    <City id="424" name="Nantong" country="CN" lat="32.03028" lng="120.87472" pop="2273326"/>
    <City id="425" name="Nanqiao" country="CN" lat="30.91611" lng="121.44944" pop="361185"/>
    <City id="426" name="Nanping" country="CN" lat="26.645" lng="118.17361" pop="467875"/>
    <City id="427" name="Nanning" country="CN" lat="22.81667" lng="108.31667" pop="3839800"/>
    <City id="428" name="Nanjing" country="CN" lat="32.06167" lng="118.77778" pop="9314685"/>
    <City id="429" name="Nanchong" country="CN" lat="30.79508" lng="106.08473" pop="1858875"/>
    <City id="430" name="Nanchang" country="CN" lat="28.68396" lng="115.85306" pop="2357839"/>
    <City id="431" name="Nada" country="CN" lat="19.52134" lng="109.57895" pop="256652"/>
    <City id="432" name="Minhang" country="CN" lat="31.10881" lng="121.37471" pop="2716600"/>
    <City id="433" name="Mianyang" country="CN" lat="31.46784" lng="104.68168" pop="1550000"/>
    <City id="434" name="Mentougou" country="CN" lat="39.93819" lng="116.09307" pop="197772"/>
    <City id="435" name="Meizhou" country="CN" lat="24.28859" lng="116.11768" pop="992351"/>
    <City id="436" name="Meishan" country="CN" lat="30.04392" lng="103.83696" pop="1107742"/>
    <City id="437" name="Maoming" country="CN" lat="21.66625" lng="110.91364" pop="1307802"/>
    <City id="438" name="Majie" country="CN" lat="25.0319" lng="102.638" pop="131696"/>
    <City id="439" name="Ma'anshan" country="CN" lat="31.68579" lng="118.51008" pop="741531"/>
    <City id="440" name="Luzhou" country="CN" lat="28.8903" lng="105.42575" pop="998900"/>
    <City id="441" name="Luoyang" country="CN" lat="34.67345" lng="112.43684" pop="1390581"/>
    <City id="442" name="Luojiang" country="CN" lat="31.30497" lng="104.50484" pop="212186"/>
    <City id="443" name="Luohe" country="CN" lat="33.56394" lng="114.04272" pop="1294974"/>
    <City id="444" name="Luancheng" country="CN" lat="37.88452" lng="114.64629" pop="597130"/>
    <City id="445" name="Lu'an" country="CN" lat="31.73561" lng="116.51688" pop="1644344"/>
    <City id="446" name="Loudi" country="CN" lat="27.73444" lng="111.99444" pop="497171"/>
    <City id="447" name="Longyan" country="CN" lat="25.07485" lng="117.01775" pop="1025087"/>
    <City id="448" name="Longgang" country="CN" lat="22.72289" lng="114.26326" pop="215273"/>
    <City id="449" name="Guankou" country="CN" lat="28.15861" lng="113.62709" pop="1380000"/>
    <City id="450" name="Puning" country="CN" lat="23.31072" lng="116.16869" pop="874954"/>
    <City id="451" name="Lishui" country="CN" lat="28.46042" lng="119.91029" pop="451418"/>
    <City id="452" name="Liuzhou" country="CN" lat="24.32405" lng="109.40698" pop="1436599"/>
    <City id="453" name="Linyi" country="CN" lat="35.06306" lng="118.34278" pop="2743843"/>
    <City id="454" name="Linxia Chengguanzhen" country="CN" lat="35.60028" lng="103.20639" pop="274466"/>
    <City id="455" name="Linqu" country="CN" lat="36.51556" lng="118.53972" pop="299646"/>
    <City id="456" name="Beiliu" country="CN" lat="22.70722" lng="110.34917" pop="199769"/>
    <City id="457" name="Linfen" country="CN" lat="36.08889" lng="111.51889" pop="959198"/>
    <City id="458" name="Lincang" country="CN" lat="23.87972" lng="100.09455" pop="323708"/>
    <City id="459" name="Licheng" country="CN" lat="23.29549" lng="113.82465" pop="172775"/>
    <City id="460" name="Liaocheng" country="CN" lat="36.45064" lng="116.00247" pop="1229768"/>
    <City id="461" name="Hepu" country="CN" lat="21.65921" lng="109.20011" pop="192813"/>
    <City id="462" name="Wuwei" country="CN" lat="37.92672" lng="102.63202" pop="1010295"/>
    <City id="463" name="Leshan" country="CN" lat="29.56227" lng="103.76386" pop="662814"/>
    <City id="464" name="Laohekou" country="CN" lat="32.38583" lng="111.66778" pop="253112"/>
    <City id="465" name="Lanzhou" country="CN" lat="36.05701" lng="103.83987" pop="3000000"/>
    <City id="466" name="Langfang" country="CN" lat="39.52079" lng="116.71471" pop="868066"/>
    <City id="467" name="Laizhou" country="CN" lat="37.18073" lng="119.94217" pop="188000"/>
    <City id="468" name="Laiyang" country="CN" lat="36.97583" lng="120.71361" pop="169594"/>
    <City id="469" name="Laiwu" country="CN" lat="36.19278" lng="117.65694" pop="989535"/>
    <City id="470" name="Laibin" country="CN" lat="23.74743" lng="109.22222" pop="910282"/>
    <City id="471" name="Kunming" country="CN" lat="25.03889" lng="102.71833" pop="3855346"/>
    <City id="472" name="Kaiyuan" country="CN" lat="23.69767" lng="103.30372" pop="198423"/>
    <City id="473" name="Kaili" country="CN" lat="26.58583" lng="107.97972" pop="275745"/>
    <City id="474" name="Kaifeng" country="CN" lat="34.7986" lng="114.30742" pop="1451741"/>
    <City id="475" name="Jiyuan" country="CN" lat="35.08912" lng="112.58815" pop="242143"/>
    <City id="476" name="Jizhou" country="CN" lat="37.55054" lng="115.56871" pop="362013"/>
    <City id="477" name="Jiujiang" country="CN" lat="29.70475" lng="116.00206" pop="1164268"/>
    <City id="478" name="Jinzhou" country="CN" lat="39.1" lng="121.71667" pop="215386"/>
    <City id="479" name="Jining" country="CN" lat="35.405" lng="116.58139" pop="1241012"/>
    <City id="480" name="Jinhua" country="CN" lat="29.10678" lng="119.64421" pop="1463990"/>
    <City id="481" name="Jingzhou" country="CN" lat="30.35028" lng="112.19028" pop="1052282"/>
    <City id="482" name="Jingmen" country="CN" lat="31.03361" lng="112.20472" pop="632954"/>
    <City id="483" name="Jingling" country="CN" lat="30.65" lng="113.1" pop="224871"/>
    <City id="484" name="Jingdezhen" country="CN" lat="29.2947" lng="117.20789" pop="473561"/>
    <City id="485" name="Jing'an" country="CN" lat="31.22" lng="121.41583" pop="936500"/>
    <City id="486" name="Jinchang" country="CN" lat="38.50062" lng="102.19379" pop="228561"/>
    <City id="487" name="Jincheng" country="CN" lat="35.50222" lng="112.83278" pop="476945"/>
    <City id="488" name="Jinan" country="CN" lat="36.66833" lng="116.99722" pop="4335989"/>
    <City id="489" name="Jijiang" country="CN" lat="29.28993" lng="106.25001" pop="196787"/>
    <City id="490" name="Jieshou" country="CN" lat="33.26338" lng="115.36108" pop="141993"/>
    <City id="491" name="Jieshi" country="CN" lat="22.81027" lng="115.83058" pop="137444"/>
    <City id="492" name="Jiazi" country="CN" lat="22.87932" lng="116.07318" pop="130298"/>
    <City id="493" name="Jiaxing" country="CN" lat="30.7522" lng="120.75" pop="1180000"/>
    <City id="494" name="Jiawang" country="CN" lat="34.43278" lng="117.44194" pop="133861"/>
    <City id="495" name="Jiaozuo" country="CN" lat="35.23925" lng="113.23914" pop="865413"/>
    <City id="496" name="Jiaozhou" country="CN" lat="36.28389" lng="120.00333" pop="619266"/>
    <City id="497" name="Ningde" country="CN" lat="26.66167" lng="119.52278" pop="429260"/>
    <City id="498" name="Jiangmen" country="CN" lat="22.58333" lng="113.08333" pop="1795459"/>
    <City id="499" name="Yangjiang" country="CN" lat="21.85563" lng="111.96272" pop="1292987"/>
    <City id="500" name="Ji'an" country="CN" lat="27.11716" lng="114.97927" pop="538699"/>
    <City id="501" name="Guangyuan" country="CN" lat="32.44201" lng="105.823" pop="516424"/>
    <City id="502" name="Qionghai" country="CN" lat="19.2425" lng="110.46417" pop="528238"/>
    <City id="503" name="Jiading" country="CN" lat="31.38575" lng="121.24465" pop="1886100"/>
    <City id="504" name="Huzhou" country="CN" lat="30.8703" lng="120.0933" pop="1015937"/>
    <City id="505" name="Cixi" country="CN" lat="30.1764" lng="121.2457" pop="1457510"/>
    <City id="506" name="Humen" country="CN" lat="22.81899" lng="113.67306" pop="191891"/>
    <City id="507" name="Huizhou" country="CN" lat="23.11147" lng="114.41523" pop="2900113"/>
    <City id="508" name="Huayin" country="CN" lat="34.56528" lng="110.06639" pop="242488"/>
    <City id="509" name="Huangshi" country="CN" lat="30.24706" lng="115.04814" pop="688090"/>
    <City id="510" name="Huanggang" country="CN" lat="23.67704" lng="116.99961" pop="225956"/>
    <City id="511" name="Xingyi" country="CN" lat="25.09617" lng="104.90639" pop="322890"/>
    <City id="512" name="Huainan" country="CN" lat="32.62639" lng="116.99694" pop="1666826"/>
    <City id="513" name="Huaihua" country="CN" lat="27.56337" lng="110.00404" pop="552622"/>
    <City id="514" name="Huaibei" country="CN" lat="33.97444" lng="116.79167" pop="1113321"/>
    <City id="515" name="Hongkou" country="CN" lat="31.25" lng="121.48917" pop="687500"/>
    <City id="516" name="Heze" country="CN" lat="35.23929" lng="115.47358" pop="1346717"/>
    <City id="517" name="Hechuan" country="CN" lat="29.99228" lng="106.26461" pop="377213"/>
    <City id="518" name="Heshan" country="CN" lat="28.56938" lng="112.34733" pop="1249807"/>
    <City id="519" name="Hepo" country="CN" lat="23.43077" lng="115.82991" pop="131238"/>
    <City id="520" name="Hengyang" country="CN" lat="26.88946" lng="112.61888" pop="1075516"/>
    <City id="521" name="Hengshui" country="CN" lat="37.73908" lng="115.68348" pop="522147"/>
    <City id="522" name="Hejiang" country="CN" lat="28.81161" lng="105.83359" pop="137437"/>
    <City id="523" name="Hefei" country="CN" lat="31.86389" lng="117.28083" pop="5050000"/>
    <City id="524" name="Hebi" country="CN" lat="35.73231" lng="114.28616" pop="634721"/>
    <City id="525" name="Hanzhong" country="CN" lat="33.07507" lng="107.02214" pop="1006557"/>
    <City id="526" name="Fu'an" country="CN" lat="27.09131" lng="119.64446" pop="154439"/>
    <City id="527" name="Hangzhou" country="CN" lat="30.29365" lng="120.16142" pop="9236032"/>
    <City id="528" name="Hangu" country="CN" lat="39.24889" lng="117.78917" pop="208369"/>
    <City id="529" name="Hanfeng" country="CN" lat="31.16946" lng="108.4031" pop="196528"/>
    <City id="530" name="Changzhi" country="CN" lat="36.18389" lng="113.10528" pop="1214940"/>
    <City id="531" name="Handan" country="CN" lat="36.60999" lng="114.48764" pop="1358318"/>
    <City id="532" name="Jiaojiang" country="CN" lat="28.69844" lng="121.47331" pop="470804"/>
    <City id="533" name="Haikou" country="CN" lat="20.03421" lng="110.34651" pop="2873358"/>
    <City id="534" name="Guyuan" country="CN" lat="36.00667" lng="106.28083" pop="411854"/>
    <City id="535" name="Gunan" country="CN" lat="29.0231" lng="106.648" pop="208010"/>
    <City id="536" name="Guli" country="CN" lat="28.88162" lng="120.03308" pop="536000"/>
    <City id="537" name="Guiyang" country="CN" lat="26.58333" lng="106.71667" pop="3037159"/>
    <City id="538" name="Guixi" country="CN" lat="30.33355" lng="107.34545" pop="188980"/>
    <City id="539" name="Guilin" country="CN" lat="25.28022" lng="110.29639" pop="1572300"/>
    <City id="540" name="Guigang" country="CN" lat="23.11603" lng="109.59472" pop="1086327"/>
    <City id="541" name="Guangzhou" country="CN" lat="23.11667" lng="113.25" pop="16096724"/>
    <City id="542" name="Guangshui" country="CN" lat="31.6199" lng="113.9978" pop="154771"/>
    <City id="543" name="Gejiu" country="CN" lat="23.36085" lng="103.15372" pop="136135"/>
    <City id="544" name="Gaozhou" country="CN" lat="21.91965" lng="110.85678" pop="292164"/>
    <City id="545" name="Gaoping" country="CN" lat="30.77576" lng="106.10294" pop="204368"/>
    <City id="546" name="Gaomi" country="CN" lat="36.38333" lng="119.75278" pop="391986"/>
    <City id="547" name="Ganzhou" country="CN" lat="25.84664" lng="114.9326" pop="1977253"/>
    <City id="548" name="Fuzhou" country="CN" lat="27.95999" lng="116.33333" pop="1089888"/>
    <City id="549" name="Fuyang" country="CN" lat="32.9" lng="115.81667" pop="1768947"/>
    <City id="550" name="Fuling" country="CN" lat="29.70997" lng="107.39391" pop="268658"/>
    <City id="551" name="Fuji" country="CN" lat="29.14819" lng="105.37391" pop="131927"/>
    <City id="552" name="Foshan" country="CN" lat="23.02677" lng="113.13148" pop="9042509"/>
    <City id="553" name="Fengcheng" country="CN" lat="34.70388" lng="116.58717" pop="161850"/>
    <City id="554" name="Ezhou" country="CN" lat="30.4" lng="114.83333" pop="193652"/>
    <City id="555" name="Enshi" country="CN" lat="30.3" lng="109.48333" pop="279185"/>
    <City id="556" name="Duyun" country="CN" lat="26.26667" lng="107.51667" pop="198516"/>
    <City id="557" name="Dongying" country="CN" lat="37.46271" lng="118.49165" pop="998968"/>
    <City id="558" name="Dongtai" country="CN" lat="32.85231" lng="120.30947" pop="262873"/>
    <City id="559" name="Donghai" country="CN" lat="22.94593" lng="115.64204" pop="264709"/>
    <City id="560" name="Dongguan" country="CN" lat="23.01797" lng="113.74866" pop="9644871"/>
    <City id="561" name="Dingzhou" country="CN" lat="38.51473" lng="114.9868" pop="152934"/>
    <City id="562" name="Dingxi" country="CN" lat="35.57088" lng="104.62303" pop="420614"/>
    <City id="563" name="Dezhou" country="CN" lat="37.44661" lng="116.36706" pop="679535"/>
    <City id="564" name="Deyang" country="CN" lat="31.13019" lng="104.38198" pop="735070"/>
    <City id="565" name="Dengzhou" country="CN" lat="32.68273" lng="112.08873" pop="285032"/>
    <City id="566" name="Zhangjiajie" country="CN" lat="29.12944" lng="110.47833" pop="441804"/>
    <City id="567" name="Daye" country="CN" lat="30.08333" lng="114.95" pop="347406"/>
    <City id="568" name="Lijiang" country="CN" lat="26.86879" lng="100.22072" pop="211151"/>
    <City id="569" name="Dazhou" country="CN" lat="31.2106" lng="107.46308" pop="1589435"/>
    <City id="570" name="Dawukou" country="CN" lat="39.04194" lng="106.39583" pop="131880"/>
    <City id="571" name="Daliang" country="CN" lat="22.84067" lng="113.2503" pop="210411"/>
    <City id="572" name="Dalian" country="CN" lat="38.91222" lng="121.60222" pop="4913879"/>
    <City id="573" name="Dali" country="CN" lat="25.58474" lng="100.21229" pop="235305"/>
    <City id="574" name="Chuzhou" country="CN" lat="32.32194" lng="118.29778" pop="782671"/>
    <City id="575" name="Chuxiong" country="CN" lat="25.03639" lng="101.54556" pop="555081"/>
    <City id="576" name="Yangchun" country="CN" lat="22.16667" lng="111.78333" pop="153547"/>
    <City id="577" name="Yiwu" country="CN" lat="29.31506" lng="120.07676" pop="1481384"/>
    <City id="578" name="Chongqing" country="CN" lat="29.56026" lng="106.55771" pop="7457599"/>
    <City id="579" name="Chizhou" country="CN" lat="30.66134" lng="117.47783" pop="615274"/>
    <City id="580" name="Chenzhou" country="CN" lat="25.8" lng="113.03333" pop="822534"/>
    <City id="581" name="Jiangyin" country="CN" lat="31.91102" lng="120.26302" pop="1779515"/>
    <City id="582" name="Chengdu" country="CN" lat="30.66667" lng="104.06667" pop="13568357"/>
    <City id="583" name="Chenghua" country="CN" lat="23.46132" lng="116.77007" pop="152453"/>
    <City id="584" name="Chaozhou" country="CN" lat="23.65396" lng="116.62262" pop="1750945"/>
    <City id="585" name="Chaohu" country="CN" lat="31.6" lng="117.86667" pop="138463"/>
    <City id="586" name="Changzhou" country="CN" lat="31.77359" lng="119.95401" pop="3290918"/>
    <City id="587" name="Changyuan" country="CN" lat="29.40499" lng="105.58827" pop="186653"/>
    <City id="588" name="Changyi" country="CN" lat="36.85361" lng="119.39083" pop="302072"/>
    <City id="589" name="Changning" country="CN" lat="31.21739" lng="121.42105" pop="694900"/>
    <City id="590" name="Changle" country="CN" lat="36.70583" lng="118.8275" pop="259161"/>
    <City id="591" name="Cangzhou" country="CN" lat="38.31124" lng="116.85334" pop="527681"/>
    <City id="592" name="Bozhou" country="CN" lat="33.87722" lng="115.77028" pop="1409436"/>
    <City id="593" name="Boshan" country="CN" lat="36.48333" lng="117.83333" pop="153596"/>
    <City id="594" name="Baise" country="CN" lat="23.89013" lng="106.62684" pop="686078"/>
    <City id="595" name="Bishan" country="CN" lat="29.59491" lng="106.22476" pop="204702"/>
    <City id="596" name="Binzhou" country="CN" lat="37.36667" lng="118.01667" pop="682717"/>
    <City id="597" name="Bijie" country="CN" lat="27.30193" lng="105.28627" pop="1137383"/>
    <City id="598" name="Bengbu" country="CN" lat="32.94083" lng="117.36083" pop="972784"/>
    <City id="599" name="Beijing" country="CN" lat="39.9075" lng="116.39723" pop="18960744"/>
    <City id="600" name="Beihai" country="CN" lat="21.48349" lng="109.11549" pop="525329"/>
    <City id="601" name="Beibei" country="CN" lat="29.82739" lng="106.43645" pop="247702"/>
    <City id="602" name="Basuo" country="CN" lat="19.10267" lng="108.66565" pop="444458"/>
    <City id="603" name="Shaoyang" country="CN" lat="27.23818" lng="111.46214" pop="753194"/>
    <City id="604" name="Baoding" country="CN" lat="38.87288" lng="115.46246" pop="2739887"/>
    <City id="605" name="Baiyin" country="CN" lat="36.54696" lng="104.17023" pop="294400"/>
    <City id="606" name="Shangyu" country="CN" lat="30.01556" lng="120.87111" pop="770000"/>
    <City id="607" name="Bachuan" country="CN" lat="29.84863" lng="106.05046" pop="208520"/>
    <City id="608" name="Anshun" country="CN" lat="26.25" lng="105.93333" pop="765313"/>
    <City id="609" name="Anqiu" country="CN" lat="36.43417" lng="119.1925" pop="364208"/>
    <City id="610" name="Anqing" country="CN" lat="30.51365" lng="117.04723" pop="804493"/>
    <City id="611" name="Anbu" country="CN" lat="23.44895" lng="116.68092" pop="162964"/>
    <City id="612" name="Zhoushan" country="CN" lat="29.98869" lng="122.20488" pop="882932"/>
    <City id="613" name="Banan" country="CN" lat="29.37861" lng="106.54" pop="508703"/>
    <City id="614" name="Nantou" country="CN" lat="22.72171" lng="113.29261" pop="130370"/>
    <City id="615" name="Tanzhou" country="CN" lat="22.25503" lng="113.46692" pop="382445"/>
    <City id="616" name="Shijie" country="CN" lat="23.09546" lng="113.79195" pop="246960"/>
    <City id="617" name="Lianghu" country="CN" lat="29.99152" lng="120.89845" pop="155000"/>
    <City id="618" name="Wuyishan" country="CN" lat="27.75995" lng="118.03066" pop="137133"/>
    <City id="619" name="Yueyang" country="CN" lat="29.37455" lng="113.09481" pop="991465"/>
    <City id="620" name="Zhaodong" country="CN" lat="46.05223" lng="125.9552" pop="154406"/>
    <City id="621" name="Zhangjiakou" country="CN" lat="40.78341" lng="114.87139" pop="692602"/>
    <City id="622" name="Zhalantun" country="CN" lat="48.00945" lng="122.73651" pop="132224"/>
    <City id="623" name="Yingkou" country="CN" lat="40.66472" lng="122.23176" pop="591159"/>
    <City id="624" name="Yanji" country="CN" lat="42.88825" lng="129.50241" pop="326957"/>
    <City id="625" name="Xuanhua" country="CN" lat="40.61205" lng="115.06463" pop="373422"/>
    <City id="626" name="Ulanhot" country="CN" lat="46.08333" lng="122.08333" pop="165846"/>
    <City id="627" name="Tongliao" country="CN" lat="43.6125" lng="122.26528" pop="261110"/>
    <City id="628" name="Tonghua" country="CN" lat="41.71972" lng="125.92639" pop="510000"/>
    <City id="629" name="Tieling" country="CN" lat="42.29306" lng="123.84139" pop="333907"/>
    <City id="630" name="Sujiatun" country="CN" lat="41.65917" lng="123.33917" pop="148113"/>
    <City id="631" name="Suihua" country="CN" lat="46.64814" lng="126.96656" pop="252245"/>
    <City id="632" name="Siping" country="CN" lat="43.16143" lng="124.37785" pop="555609"/>
    <City id="633" name="Shuangyashan" country="CN" lat="46.67686" lng="131.13273" pop="600000"/>
    <City id="634" name="Shuangcheng" country="CN" lat="45.3798" lng="126.30711" pop="130710"/>
    <City id="635" name="Shenyang" country="CN" lat="41.79222" lng="123.43278" pop="7050000"/>
    <City id="636" name="Shanhaiguan" country="CN" lat="40.00119" lng="119.75395" pop="140000"/>
    <City id="637" name="Shangzhi" country="CN" lat="45.20562" lng="128.00242" pop="131006"/>
    <City id="638" name="Fendou" country="CN" lat="46.64142" lng="124.86283" pop="226298"/>
    <City id="639" name="Qitaihe" country="CN" lat="45.768" lng="130.9953" pop="345033"/>
    <City id="640" name="Qiqihar" country="CN" lat="47.33922" lng="123.96154" pop="882364"/>
    <City id="641" name="Panshan" country="CN" lat="41.18806" lng="122.04944" pop="625040"/>
    <City id="642" name="Nanpiao" country="CN" lat="41.09822" lng="120.74792" pop="157044"/>
    <City id="643" name="Mudanjiang" country="CN" lat="44.54804" lng="129.62594" pop="665915"/>
    <City id="644" name="Longfeng" country="CN" lat="46.53168" lng="125.1038" pop="152074"/>
    <City id="645" name="Longshan" country="CN" lat="42.88545" lng="125.1367" pop="465249"/>
    <City id="646" name="Liaoyang" country="CN" lat="41.27194" lng="123.17306" pop="687890"/>
    <City id="647" name="Jixi" country="CN" lat="45.29322" lng="130.96217" pop="403759"/>
    <City id="648" name="Jiutai" country="CN" lat="44.15127" lng="125.82975" pop="175115"/>
    <City id="649" name="Lianshan" country="CN" lat="40.76432" lng="120.85327" pop="313247"/>
    <City id="650" name="Jilin" country="CN" lat="43.84652" lng="126.5608" pop="1895865"/>
    <City id="651" name="Jiamusi" country="CN" lat="46.79711" lng="130.31118" pop="549549"/>
    <City id="652" name="Jiagedaqi" country="CN" lat="50.41667" lng="124.11667" pop="135760"/>
    <City id="653" name="Huludao" country="CN" lat="40.75243" lng="120.83552" pop="944495"/>
    <City id="654" name="Hulan Ergi" country="CN" lat="47.20417" lng="123.63333" pop="265344"/>
    <City id="655" name="Huadian" country="CN" lat="42.97213" lng="126.74107" pop="139047"/>
    <City id="656" name="Honggang" country="CN" lat="46.3974" lng="124.88447" pop="147977"/>
    <City id="657" name="Hohhot" country="CN" lat="40.81056" lng="111.65222" pop="2350000"/>
    <City id="658" name="Hengshan" country="CN" lat="45.20837" lng="130.89808" pop="164844"/>
    <City id="659" name="Heihe" country="CN" lat="50.24413" lng="127.49016" pop="223832"/>
    <City id="660" name="Hegang" country="CN" lat="47.34727" lng="130.29033" pop="743307"/>
    <City id="661" name="Harbin" country="CN" lat="45.75" lng="126.65" pop="5242897"/>
    <City id="662" name="Hailin" country="CN" lat="44.57149" lng="129.38539" pop="144443"/>
    <City id="663" name="Hailar" country="CN" lat="49.2" lng="119.7" pop="211066"/>
    <City id="664" name="Haicheng" country="CN" lat="40.85158" lng="122.74754" pop="191651"/>
    <City id="665" name="Beining" country="CN" lat="41.59556" lng="121.79278" pop="152033"/>
    <City id="666" name="Gongzhuling" country="CN" lat="43.50075" lng="124.81979" pop="140909"/>
    <City id="667" name="Fuyu" country="CN" lat="45.18333" lng="124.81667" pop="138704"/>
    <City id="668" name="Fuxin" country="CN" lat="42.01556" lng="121.65889" pop="689050"/>
    <City id="669" name="Fushun" country="CN" lat="41.88669" lng="123.94363" pop="1400646"/>
    <City id="670" name="Dunhua" country="CN" lat="43.36954" lng="128.22861" pop="148844"/>
    <City id="671" name="Dongling" country="CN" lat="41.81444" lng="123.57583" pop="171454"/>
    <City id="672" name="Datong" country="CN" lat="40.09361" lng="113.29139" pop="1850000"/>
    <City id="673" name="Daqing" country="CN" lat="46.58333" lng="125.0" pop="1604027"/>
    <City id="674" name="Dandong" country="CN" lat="40.12917" lng="124.39472" pop="631973"/>
    <City id="675" name="Chifeng" country="CN" lat="42.26833" lng="118.96361" pop="346654"/>
    <City id="676" name="Chengde" country="CN" lat="40.9519" lng="117.95883" pop="449325"/>
    <City id="677" name="Chaoyang" country="CN" lat="41.57028" lng="120.45861" pop="410005"/>
    <City id="678" name="Changchun" country="CN" lat="43.88" lng="125.32278" pop="4714996"/>
    <City id="679" name="Benxi" country="CN" lat="41.28861" lng="123.765" pop="987717"/>
    <City id="680" name="Beipiao" country="CN" lat="41.79194" lng="120.77917" pop="190315"/>
    <City id="681" name="Bei'an" country="CN" lat="48.26667" lng="126.6" pop="436444"/>
    <City id="682" name="Baotou" country="CN" lat="40.6516" lng="109.84389" pop="2150000"/>
    <City id="683" name="Baicheng" country="CN" lat="45.61751" lng="122.83302" pop="316970"/>
    <City id="684" name="Baishan" country="CN" lat="41.93853" lng="126.41965" pop="183880"/>
    <City id="685" name="Anshan" country="CN" lat="41.12361" lng="122.99" pop="1450000"/>
    <City id="686" name="Anda" country="CN" lat="46.44867" lng="125.30161" pop="181271"/>
    <City id="687" name="Aihui" country="CN" lat="49.97946" lng="127.48119" pop="192764"/>
    <City id="688" name="Acheng" country="CN" lat="45.54558" lng="126.95191" pop="144665"/>
    <City id="689" name="Doilungdeqen" country="CN" lat="29.65505" lng="90.99177" pop="137451"/>
    <City id="690" name="E'zhou" country="CN" lat="30.39607" lng="114.88655" pop="668727"/>
    <City id="691" name="Panzhihua" country="CN" lat="26.58509" lng="101.71276" pop="787177"/>
    <City id="692" name="Gongheyong" country="CN" lat="22.75923" lng="113.79452" pop="204881"/>
    <City id="693" name="Tantou" country="CN" lat="22.75121" lng="113.83496" pop="320304"/>
    <City id="694" name="Zhongshan" country="CN" lat="22.52306" lng="113.37912" pop="3841873"/>
    <City id="695" name="Tongchuan" country="CN" lat="34.8988" lng="108.95056" pop="417740"/>
    <City id="696" name="Changshu" country="CN" lat="31.64615" lng="120.74221" pop="1677050"/>
    <City id="697" name="Jiashan" country="CN" lat="30.84918" lng="120.92583" pop="137112"/>
    <City id="698" name="Fenghuang" country="CN" lat="27.93557" lng="109.59961" pop="370000"/>
    <City id="699" name="Hezhou" country="CN" lat="24.40357" lng="111.56675" pop="1005490"/>
    <City id="700" name="Zhu Cheng City" country="CN" lat="35.99502" lng="119.40259" pop="1000000"/>
    <City id="701" name="Changzheng" country="CN" lat="31.23913" lng="121.36779" pop="229925"/>
    <City id="702" name="Xiayang" country="CN" lat="31.14967" lng="121.11588" pop="137321"/>
    <City id="703" name="Shangri-La" country="CN" lat="27.82511" lng="99.70779" pop="186400"/>
    <City id="704" name="Xilinhot" country="CN" lat="43.93889" lng="116.07021" pop="349953"/>
    <City id="705" name="Lhoka" country="CN" lat="29.24301" lng="91.77239" pop="353700"/>
    <City id="706" name="Huangpu" country="CN" lat="31.2378" lng="121.4781" pop="504700"/>
    <City id="707" name="Ulanqab" country="CN" lat="40.993" lng="113.133" pop="550231"/>
    <City id="708" name="Ordos" country="CN" lat="39.6086" lng="109.78157" pop="1940653"/>
    <City id="709" name="Lizhi" country="CN" lat="29.70317" lng="107.39521" pop="156753"/>
    <City id="710" name="Huixing" country="CN" lat="29.68403" lng="106.61486" pop="186972"/>
    <City id="711" name="Yangcheng" country="CN" lat="29.99968" lng="106.25604" pop="186242"/>
    <City id="712" name="Nanjin" country="CN" lat="29.98497" lng="106.26529" pop="143766"/>
    <City id="713" name="Shenglilu" country="CN" lat="29.35048" lng="105.8775" pop="134218"/>
    <City id="714" name="Wenshan City" country="CN" lat="23.36306" lng="104.25047" pop="450000"/>
    <City id="715" name="Bole" country="CN" lat="44.89334" lng="82.06993" pop="235585"/>
    <City id="716" name="Liupanshui" country="CN" lat="26.59444" lng="104.83333" pop="1320825"/>
    <City id="717" name="Nanchuan" country="CN" lat="29.15201" lng="107.10335" pop="204775"/>
    <City id="718" name="Xingning" country="CN" lat="24.1483" lng="115.72272" pop="274499"/>
    <City id="719" name="Rizhao" country="CN" lat="35.41414" lng="119.52908" pop="661943"/>
    <City id="720" name="Jianshui" country="CN" lat="24.2774" lng="101.224" pop="490000"/>
    <City id="721" name="Liuzhi" country="CN" lat="26.2342" lng="105.426" pop="138826"/>
    <City id="722" name="Xuzhou" country="CN" lat="34.20442" lng="117.28386" pop="1253991"/>
    <City id="723" name="Panjin" country="CN" lat="41.121" lng="122.0739" pop="1166481"/>
    <City id="724" name="Lianyungang" country="CN" lat="34.59845" lng="119.21556" pop="2001009"/>
    <City id="725" name="Rugao" country="CN" lat="32.37035" lng="120.57649" pop="257400"/>
    <City id="726" name="Jinzhong" country="CN" lat="37.68403" lng="112.75471" pop="1226617"/>
    <City id="727" name="Baoji" country="CN" lat="34.36775" lng="107.23705" pop="1437802"/>
    <City id="728" name="Huocheng" country="CN" lat="44.05305" lng="80.87173" pop="360000"/>
    <City id="729" name="Bayan Nur" country="CN" lat="40.74143" lng="107.38599" pop="1760000"/>
    <City id="730" name="Bazhong" country="CN" lat="31.8694" lng="106.74432" pop="2712894"/>
    <City id="731" name="Tumxuk" country="CN" lat="39.86984" lng="79.06118" pop="135727"/>
    <City id="732" name="Chongzuo" country="CN" lat="22.38161" lng="107.3683" pop="384905"/>
    <City id="733" name="Fangchenggang" country="CN" lat="21.76945" lng="108.35661" pop="276315"/>
    <City id="734" name="Yunlong" country="CN" lat="34.25281" lng="117.25167" pop="345393"/>
    <City id="735" name="Shizuishan" country="CN" lat="38.98082" lng="106.3892" pop="739400"/>
    <City id="736" name="Hechi" country="CN" lat="24.69285" lng="108.08376" pop="330131"/>
    <City id="737" name="Wanzhou" country="CN" lat="30.76451" lng="108.39586" pop="1545900"/>
    <City id="738" name="Yintai" country="CN" lat="35.11524" lng="109.09702" pop="217509"/>
    <City id="739" name="Qingyang" country="CN" lat="35.70976" lng="107.64455" pop="2125400"/>
    <City id="740" name="Daxing'anling" country="CN" lat="52.33385" lng="124.71242" pop="520000"/>
    <City id="741" name="Liangping" country="CN" lat="30.66108" lng="107.7661" pop="137620"/>
    <City id="742" name="Longling County" country="CN" lat="24.58663" lng="98.68934" pop="270000"/>
    <City id="743" name="Mianzhu, Deyang, Sichuan" country="CN" lat="31.33786" lng="104.22057" pop="510000"/>
    <City id="744" name="Pingwu County" country="CN" lat="32.40732" lng="104.52738" pop="180000"/>
    <City id="745" name="Hulunbuir" country="CN" lat="49.21141" lng="119.75582" pop="349400"/>
    <City id="746" name="Bao'an" country="CN" lat="22.55213" lng="113.88288" pop="4476554"/>
    <City id="747" name="Luohu District" country="CN" lat="22.54721" lng="114.13149" pop="1143801"/>
    <City id="748" name="Mengzi" country="CN" lat="23.36779" lng="103.38212" pop="595100"/>
    <City id="749" name="Lushui" country="CN" lat="25.8232" lng="98.85853" pop="197000"/>
    <City id="750" name="Lueliang" country="CN" lat="37.5192" lng="111.14436" pop="3346500"/>
    <City id="751" name="Nyingchi" country="CN" lat="29.64885" lng="94.35509" pop="200000"/>
    <City id="752" name="Chengguan Qu" country="CN" lat="29.63842" lng="91.04441" pop="478275"/>
    <City id="753" name="Jinshan" country="CN" lat="30.83556" lng="121.29373" pop="822776"/>
    <City id="754" name="Fengxiang" country="CN" lat="30.85841" lng="121.46779" pop="1140872"/>
    <City id="755" name="Chongming" country="CN" lat="31.61852" lng="121.69621" pop="637921"/>
    <City id="756" name="Nicosia" country="CY" lat="35.17284" lng="33.35397" pop="200452"/>
    <City id="757" name="Limassol" country="CY" lat="34.68406" lng="33.03794" pop="154000"/>
    <City id="758" name="Prague" country="CZ" lat="50.08804" lng="14.42076" pop="1165581"/>
    <City id="759" name="Pilsen" country="CZ" lat="49.74747" lng="13.37759" pop="168733"/>
    <City id="760" name="Ostrava" country="CZ" lat="49.83465" lng="18.28204" pop="279791"/>
    <City id="761" name="Brno" country="CZ" lat="49.19522" lng="16.60796" pop="379466"/>
    <City id="762" name="Wuerzburg" country="DE" lat="49.79391" lng="9.95121" pop="133731"/>
    <City id="763" name="Wuppertal" country="DE" lat="51.25627" lng="7.14816" pop="360797"/>
    <City id="764" name="Wiesbaden" country="DE" lat="50.08601" lng="8.24435" pop="278609"/>
    <City id="765" name="Stuttgart" country="DE" lat="48.78232" lng="9.17702" pop="630305"/>
    <City id="766" name="Solingen" country="DE" lat="51.17343" lng="7.0845" pop="164359"/>
    <City id="767" name="Saarbruecken" country="DE" lat="49.23262" lng="7.00982" pop="179349"/>
    <City id="768" name="Rostock" country="DE" lat="54.0887" lng="12.14049" pop="198293"/>
    <City id="769" name="Prenzlauer Berg Bezirk" country="DE" lat="52.53878" lng="13.42443" pop="148878"/>
    <City id="770" name="Potsdam" country="DE" lat="52.39886" lng="13.06566" pop="182112"/>
    <City id="771" name="Paderborn" country="DE" lat="51.71905" lng="8.75439" pop="142161"/>
    <City id="772" name="Osnabrueck" country="DE" lat="52.27264" lng="8.0498" pop="166462"/>
    <City id="773" name="Oldenburg" country="DE" lat="53.14039" lng="8.21479" pop="159218"/>
    <City id="774" name="Oberhausen" country="DE" lat="51.47805" lng="6.8625" pop="219176"/>
    <City id="775" name="Nuernberg" country="DE" lat="49.45421" lng="11.07752" pop="515543"/>
    <City id="776" name="Neue Neustadt" country="DE" lat="52.15" lng="11.63333" pop="226851"/>
    <City id="777" name="Neuss" country="DE" lat="51.19807" lng="6.68504" pop="152457"/>
    <City id="778" name="Neukoelln" country="DE" lat="52.47719" lng="13.43126" pop="164636"/>
    <City id="779" name="Muenster" country="DE" lat="51.96236" lng="7.62571" pop="270184"/>
    <City id="780" name="Munich" country="DE" lat="48.13743" lng="11.57549" pop="1260391"/>
    <City id="781" name="Muelheim" country="DE" lat="51.43218" lng="6.87967" pop="170921"/>
    <City id="782" name="Moenchengladbach" country="DE" lat="51.18539" lng="6.44172" pop="261742"/>
    <City id="783" name="Mannheim" country="DE" lat="49.4891" lng="8.46694" pop="307960"/>
    <City id="784" name="Mainz" country="DE" lat="49.98185" lng="8.28008" pop="217123"/>
    <City id="785" name="Magdeburg" country="DE" lat="52.13129" lng="11.63189" pop="235775"/>
    <City id="786" name="Ludwigshafen am Rhein" country="DE" lat="49.48121" lng="8.44641" pop="163196"/>
    <City id="787" name="Luebeck" country="DE" lat="53.86893" lng="10.68729" pop="212207"/>
    <City id="788" name="Leverkusen" country="DE" lat="51.0303" lng="6.98432" pop="162738"/>
    <City id="789" name="Leipzig" country="DE" lat="51.33962" lng="12.37129" pop="504971"/>
    <City id="790" name="Kreuzberg" country="DE" lat="52.49973" lng="13.40338" pop="153135"/>
    <City id="791" name="Krefeld" country="DE" lat="51.33645" lng="6.55381" pop="237984"/>
    <City id="792" name="Koeln" country="DE" lat="50.93333" lng="6.95" pop="963395"/>
    <City id="793" name="Kiel" country="DE" lat="54.32133" lng="10.13489" pop="246601"/>
    <City id="794" name="Kassel" country="DE" lat="51.31667" lng="9.5" pop="194501"/>
    <City id="795" name="Karlsruhe" country="DE" lat="49.00937" lng="8.40444" pop="283799"/>
    <City id="796" name="Herne" country="DE" lat="51.5388" lng="7.22572" pop="172108"/>
    <City id="797" name="Heidelberg" country="DE" lat="49.40768" lng="8.69079" pop="143345"/>
    <City id="798" name="Harburg" country="DE" lat="53.46057" lng="9.98388" pop="169221"/>
    <City id="799" name="Hannover" country="DE" lat="52.37052" lng="9.73322" pop="515140"/>
    <City id="800" name="Hamm" country="DE" lat="51.68033" lng="7.82089" pop="178967"/>
    <City id="801" name="Wandsbek" country="DE" lat="53.58334" lng="10.08305" pop="411422"/>
    <City id="802" name="Marienthal" country="DE" lat="53.56667" lng="10.08333" pop="287101"/>
    <City id="803" name="Hamburg-Mitte" country="DE" lat="53.55" lng="10.01667" pop="301231"/>
    <City id="804" name="Eimsbuettel" country="DE" lat="53.57416" lng="9.95679" pop="269118"/>
    <City id="805" name="Altona" country="DE" lat="53.55" lng="9.93333" pop="250192"/>
    <City id="806" name="Hamburg" country="DE" lat="53.55073" lng="9.99302" pop="1845229"/>
    <City id="807" name="Halle (Saale)" country="DE" lat="51.48158" lng="11.97947" pop="237865"/>
    <City id="808" name="Hagen" country="DE" lat="51.36081" lng="7.47168" pop="198972"/>
    <City id="809" name="Gelsenkirchen" country="DE" lat="51.50508" lng="7.09654" pop="270028"/>
    <City id="810" name="Freiburg" country="DE" lat="47.9959" lng="7.85222" pop="215966"/>
    <City id="811" name="Frankfurt am Main" country="DE" lat="50.11552" lng="8.68417" pop="650000"/>
    <City id="812" name="Essen" country="DE" lat="51.45657" lng="7.01228" pop="593085"/>
    <City id="813" name="Erfurt" country="DE" lat="50.97734" lng="11.03536" pop="213692"/>
    <City id="814" name="Duesseldorf" country="DE" lat="51.22319" lng="6.77927" pop="620523"/>
    <City id="815" name="Duisburg" country="DE" lat="51.43247" lng="6.76516" pop="504358"/>
    <City id="816" name="Dresden" country="DE" lat="51.05089" lng="13.73832" pop="556227"/>
    <City id="817" name="Dortmund" country="DE" lat="51.51494" lng="7.466" pop="588462"/>
    <City id="818" name="Darmstadt" country="DE" lat="49.87167" lng="8.65027" pop="140385"/>
    <City id="819" name="Chemnitz" country="DE" lat="50.8357" lng="12.92922" pop="247220"/>
    <City id="820" name="Bremen" country="DE" lat="53.07582" lng="8.80717" pop="546501"/>
    <City id="821" name="Braunschweig" country="DE" lat="52.26594" lng="10.52673" pop="244715"/>
    <City id="822" name="Bonn" country="DE" lat="50.73438" lng="7.09549" pop="330579"/>
    <City id="823" name="Bochum" country="DE" lat="51.48165" lng="7.21648" pop="385729"/>
    <City id="824" name="Bielefeld" country="DE" lat="52.03333" lng="8.53333" pop="331906"/>
    <City id="825" name="Berlin" country="DE" lat="52.52437" lng="13.41053" pop="3426354"/>
    <City id="826" name="Augsburg" country="DE" lat="48.37154" lng="10.89851" pop="259196"/>
    <City id="827" name="Aachen" country="DE" lat="50.77664" lng="6.08342" pop="265208"/>
    <City id="828" name="Hamburg-Nord" country="DE" lat="53.58935" lng="9.984" pop="315514"/>
    <City id="829" name="Djibouti" country="DJ" lat="11.58901" lng="43.14503" pop="626512"/>
    <City id="830" name="Odense" country="DK" lat="55.39594" lng="10.38831" pop="180863"/>
    <City id="831" name="Copenhagen" country="DK" lat="55.67594" lng="12.56553" pop="1153615"/>
    <City id="832" name="Arhus" country="DK" lat="56.15674" lng="10.21076" pop="285273"/>
    <City id="833" name="Aalborg" country="DK" lat="57.048" lng="9.9187" pop="142937"/>
    <City id="834" name="Touggourt" country="DZ" lat="33.11083" lng="6.07" pop="143270"/>
    <City id="835" name="Tlemcen" country="DZ" lat="34.87833" lng="-1.315" pop="173531"/>
    <City id="836" name="Tiaret" country="DZ" lat="35.37103" lng="1.31699" pop="178915"/>
    <City id="837" name="Tebessa" country="DZ" lat="35.40417" lng="8.12417" pop="194461"/>
    <City id="838" name="Souk Ahras" country="DZ" lat="36.28639" lng="7.95111" pop="153479"/>
    <City id="839" name="Skikda" country="DZ" lat="36.87617" lng="6.90921" pop="182903"/>
    <City id="840" name="Sidi Bel Abbes" country="DZ" lat="35.18994" lng="-0.63085" pop="210146"/>
    <City id="841" name="Setif" country="DZ" lat="36.19112" lng="5.41373" pop="252127"/>
    <City id="842" name="Saida" country="DZ" lat="34.83033" lng="0.15171" pop="142497"/>
    <City id="843" name="Ouargla" country="DZ" lat="31.94932" lng="5.32502" pop="169928"/>
    <City id="844" name="Oran" country="DZ" lat="35.69906" lng="-0.63588" pop="803329"/>
    <City id="845" name="M'Sila" country="DZ" lat="35.70889" lng="4.53722" pop="132975"/>
    <City id="846" name="Mostaganem" country="DZ" lat="35.93115" lng="0.08918" pop="162885"/>
    <City id="847" name="Medea" country="DZ" lat="36.26417" lng="2.75393" pop="145441"/>
    <City id="848" name="Laghouat" country="DZ" lat="33.8" lng="2.86514" pop="134372"/>
    <City id="849" name="Jijel" country="DZ" lat="36.821" lng="5.76352" pop="131513"/>
    <City id="850" name="Ghardaia" country="DZ" lat="32.49094" lng="3.67347" pop="142913"/>
    <City id="851" name="El Oued" country="DZ" lat="33.35608" lng="6.86319" pop="186525"/>
    <City id="852" name="El Eulma" country="DZ" lat="36.15281" lng="5.69016" pop="145380"/>
    <City id="853" name="Chlef" country="DZ" lat="36.16525" lng="1.33452" pop="178616"/>
    <City id="854" name="El Achir" country="DZ" lat="36.06386" lng="4.62744" pop="158333"/>
    <City id="855" name="Djelfa" country="DZ" lat="34.67279" lng="3.263" pop="265833"/>
    <City id="856" name="Constantine" country="DZ" lat="36.365" lng="6.61472" pop="448028"/>
    <City id="857" name="Bordj Bou Arreridj" country="DZ" lat="36.07389" lng="4.76139" pop="158812"/>
    <City id="858" name="Blida" country="DZ" lat="36.47004" lng="2.8277" pop="331779"/>
    <City id="859" name="Biskra" country="DZ" lat="34.85038" lng="5.72805" pop="204661"/>
    <City id="860" name="Bejaia" country="DZ" lat="36.75587" lng="5.08433" pop="176139"/>
    <City id="861" name="Bechar" country="DZ" lat="31.61667" lng="-2.21667" pop="165241"/>
    <City id="862" name="Batna" country="DZ" lat="35.55597" lng="6.17414" pop="289504"/>
    <City id="863" name="Bab Ezzouar" country="DZ" lat="36.72615" lng="3.18291" pop="275630"/>
    <City id="864" name="Annaba" country="DZ" lat="36.9" lng="7.76667" pop="342703"/>
    <City id="865" name="Algiers" country="DZ" lat="36.73225" lng="3.08746" pop="2364230"/>
    <City id="866" name="Tallinn" country="EE" lat="59.43696" lng="24.75353" pop="394024"/>
    <City id="867" name="Tanta" country="EG" lat="30.78847" lng="31.00192" pop="576648"/>
    <City id="868" name="Tahta" country="EG" lat="26.76866" lng="31.50198" pop="134314"/>
    <City id="869" name="Sohag" country="EG" lat="26.55695" lng="31.69478" pop="266944"/>
    <City id="870" name="Sinnuris" country="EG" lat="29.41345" lng="30.86579" pop="133532"/>
    <City id="871" name="Shubra al Khaymah" country="EG" lat="30.12511" lng="31.25053" pop="1240289"/>
    <City id="872" name="Shibin al Kawm" country="EG" lat="30.55258" lng="31.00904" pop="267945"/>
    <City id="873" name="Samalut" country="EG" lat="28.31214" lng="30.71007" pop="142009"/>
    <City id="874" name="Rosetta" country="EG" lat="31.39951" lng="30.41718" pop="301795"/>
    <City id="875" name="Qina" country="EG" lat="26.16418" lng="32.72671" pop="252883"/>
    <City id="876" name="Qalyub" country="EG" lat="30.17922" lng="31.2056" pop="156363"/>
    <City id="877" name="Mit Ghamr" country="EG" lat="30.71524" lng="31.2592" pop="153754"/>
    <City id="878" name="Marsa Matruh" country="EG" lat="31.3529" lng="27.23725" pop="176498"/>
    <City id="879" name="Mallawi" country="EG" lat="27.73264" lng="30.84129" pop="212628"/>
    <City id="880" name="6th of October City" country="EG" lat="29.81667" lng="31.05" pop="368650"/>
    <City id="881" name="Madinat an Nasr" country="EG" lat="30.06667" lng="31.3" pop="668413"/>
    <City id="882" name="Al 'Ashir min Ramadan" country="EG" lat="30.29636" lng="31.74633" pop="246148"/>
    <City id="883" name="Kirdasah" country="EG" lat="30.03103" lng="31.11109" pop="137588"/>
    <City id="884" name="Kom Ombo" country="EG" lat="24.47669" lng="32.94626" pop="409311"/>
    <City id="885" name="Kafr ash Shaykh" country="EG" lat="31.11174" lng="30.93991" pop="194569"/>
    <City id="886" name="Girga" country="EG" lat="26.33721" lng="31.89295" pop="151256"/>
    <City id="887" name="Esna" country="EG" lat="25.29336" lng="32.55402" pop="462787"/>
    <City id="888" name="Idku" country="EG" lat="31.3073" lng="30.2981" pop="177152"/>
    <City id="889" name="Halwan" country="EG" lat="29.84144" lng="31.30084" pop="230000"/>
    <City id="890" name="Hada'iq al Qubbah" country="EG" lat="30.08843" lng="31.28351" pop="339612"/>
    <City id="891" name="Damietta" country="EG" lat="31.41648" lng="31.81332" pop="305920"/>
    <City id="892" name="Disuq" country="EG" lat="31.13259" lng="30.64784" pop="149291"/>
    <City id="893" name="Damanhur" country="EG" lat="31.03408" lng="30.46823" pop="318207"/>
    <City id="894" name="Bush" country="EG" lat="29.14816" lng="31.12733" pop="136441"/>
    <City id="895" name="Port Said" country="EG" lat="31.26531" lng="32.3019" pop="780515"/>
    <City id="896" name="Bilqas" country="EG" lat="31.21452" lng="31.35798" pop="137080"/>
    <City id="897" name="Bilbeis" country="EG" lat="30.42039" lng="31.56223" pop="185237"/>
    <City id="898" name="Bani Suwayf" country="EG" lat="29.07441" lng="31.09785" pop="273151"/>
    <City id="899" name="Banha" country="EG" lat="30.45977" lng="31.1842" pop="182254"/>
    <City id="900" name="Zagazig" country="EG" lat="30.58768" lng="31.502" pop="430445"/>
    <City id="901" name="Assiut" country="EG" lat="27.18096" lng="31.18368" pop="528669"/>
    <City id="902" name="Aswan" country="EG" lat="24.09082" lng="32.89942" pop="379774"/>
    <City id="903" name="Suez" country="EG" lat="29.97371" lng="32.52627" pop="699541"/>
    <City id="904" name="Luxor" country="EG" lat="25.69893" lng="32.6421" pop="422407"/>
    <City id="905" name="Cairo" country="EG" lat="30.06263" lng="31.24967" pop="9606916"/>
    <City id="906" name="Minya" country="EG" lat="28.09193" lng="30.75813" pop="283605"/>
    <City id="907" name="Al Matariyah" country="EG" lat="31.18287" lng="32.03108" pop="162045"/>
    <City id="908" name="Al Mansurah" country="EG" lat="31.03637" lng="31.38069" pop="621953"/>
    <City id="909" name="Al Mahallah al Kubra" country="EG" lat="30.97063" lng="31.1669" pop="592573"/>
    <City id="910" name="Al Khusus" country="EG" lat="30.15293" lng="31.31501" pop="488904"/>
    <City id="911" name="Giza" country="EG" lat="30.00944" lng="31.20861" pop="4367343"/>
    <City id="912" name="Ismailia" country="EG" lat="30.60427" lng="32.27225" pop="429465"/>
    <City id="913" name="Alexandria" country="EG" lat="31.20176" lng="29.91582" pop="5263542"/>
    <City id="914" name="Al Hawamidiyah" country="EG" lat="29.9" lng="31.25" pop="155055"/>
    <City id="915" name="Hurghada" country="EG" lat="27.25738" lng="33.81291" pop="207132"/>
    <City id="916" name="Al Fayyum" country="EG" lat="29.30995" lng="30.8418" pop="519047"/>
    <City id="917" name="Arish" country="EG" lat="31.13159" lng="33.79844" pop="199243"/>
    <City id="918" name="Akhmim" country="EG" lat="26.5622" lng="31.74566" pop="151430"/>
    <City id="919" name="Abu Kabir" country="EG" lat="30.72508" lng="31.67148" pop="154466"/>
    <City id="920" name="New Cairo" country="EG" lat="30.03" lng="31.47" pop="313139"/>
    <City id="921" name="Al Qahirah al Jadidah" country="EG" lat="30.04214" lng="31.44446" pop="313139"/>
    <City id="922" name="Al-'Ubur" country="EG" lat="30.22886" lng="31.48149" pop="138987"/>
    <City id="923" name="Asmara" country="ER" lat="15.33805" lng="38.93184" pop="563930"/>
    <City id="924" name="Valencia" country="ES" lat="39.47391" lng="-0.37966" pop="824340"/>
    <City id="925" name="Sevilla" country="ES" lat="37.38283" lng="-5.97317" pop="686741"/>
    <City id="926" name="Santa Cruz de Tenerife" country="ES" lat="28.46824" lng="-16.25462" pop="211359"/>
    <City id="927" name="La Laguna" country="ES" lat="28.4853" lng="-16.32014" pop="150661"/>
    <City id="928" name="Palma" country="ES" lat="39.56939" lng="2.65024" pop="438234"/>
    <City id="929" name="Murcia" country="ES" lat="37.98704" lng="-1.13004" pop="471982"/>
    <City id="930" name="Marbella" country="ES" lat="36.51543" lng="-4.88583" pop="156295"/>
    <City id="931" name="Malaga" country="ES" lat="36.72016" lng="-4.42034" pop="592346"/>
    <City id="932" name="Las Palmas de Gran Canaria" country="ES" lat="28.10178" lng="-15.41573" pop="383516"/>
    <City id="933" name="Jerez de la Frontera" country="ES" lat="36.68645" lng="-6.13606" pop="212879"/>
    <City id="934" name="Huelva" country="ES" lat="37.26638" lng="-6.94004" pop="144258"/>
    <City id="935" name="Granada" country="ES" lat="37.18817" lng="-3.60667" pop="233532"/>
    <City id="936" name="Elche" country="ES" lat="38.26218" lng="-0.70107" pop="234765"/>
    <City id="937" name="Cordoba" country="ES" lat="37.89155" lng="-4.77275" pop="325708"/>
    <City id="938" name="Castello de la Plana" country="ES" lat="39.98567" lng="-0.04935" pop="171857"/>
    <City id="939" name="Cartagena" country="ES" lat="37.60197" lng="-0.98397" pop="213943"/>
    <City id="940" name="Badajoz" country="ES" lat="38.87789" lng="-6.97061" pop="150530"/>
    <City id="941" name="Almeria" country="ES" lat="36.83814" lng="-2.45974" pop="196851"/>
    <City id="942" name="Alicante" country="ES" lat="38.34517" lng="-0.48149" pop="348901"/>
    <City id="943" name="Albacete" country="ES" lat="38.99424" lng="-1.85643" pop="173050"/>
    <City id="944" name="Zaragoza" country="ES" lat="41.65606" lng="-0.87734" pop="686986"/>
    <City id="945" name="Gasteiz / Vitoria" country="ES" lat="42.84998" lng="-2.67268" pop="257407"/>
    <City id="946" name="Vigo" country="ES" lat="42.23282" lng="-8.72264" pop="293642"/>
    <City id="947" name="Valladolid" country="ES" lat="41.65541" lng="-4.72353" pop="300618"/>
    <City id="948" name="Tetuan de las Victorias" country="ES" lat="40.45975" lng="-3.6975" pop="155000"/>
    <City id="949" name="Terrassa" country="ES" lat="41.56667" lng="2.01667" pop="218535"/>
    <City id="950" name="Tarragona" country="ES" lat="41.11905" lng="1.24544" pop="141542"/>
    <City id="951" name="Santander" country="ES" lat="43.46589" lng="-3.80493" pop="173635"/>
    <City id="952" name="San Sebastian" country="ES" lat="43.31283" lng="-1.97499" pop="185357"/>
    <City id="953" name="Sant Andreu" country="ES" lat="41.43541" lng="2.18982" pop="142598"/>
    <City id="954" name="Salamanca" country="ES" lat="40.96882" lng="-5.66388" pop="144825"/>
    <City id="955" name="Sabadell" country="ES" lat="41.54329" lng="2.10942" pop="211734"/>
    <City id="956" name="Puente de Vallecas" country="ES" lat="40.39354" lng="-3.662" pop="244151"/>
    <City id="957" name="Pamplona" country="ES" lat="42.81687" lng="-1.64323" pop="208243"/>
    <City id="958" name="Oviedo" country="ES" lat="43.36029" lng="-5.84476" pop="220027"/>
    <City id="959" name="Mostoles" country="ES" lat="40.32234" lng="-3.86496" pop="207095"/>
    <City id="960" name="Madrid" country="ES" lat="40.4165" lng="-3.70256" pop="3255944"/>
    <City id="961" name="Logrono" country="ES" lat="42.46615" lng="-2.45115" pop="151164"/>
    <City id="962" name="Lleida" country="ES" lat="41.61674" lng="0.62218" pop="140797"/>
    <City id="963" name="Leganes" country="ES" lat="40.32718" lng="-3.7635" pop="188425"/>
    <City id="964" name="A Coruna" country="ES" lat="43.37135" lng="-8.396" pop="250438"/>
    <City id="965" name="L'Hospitalet de Llobregat" country="ES" lat="41.35967" lng="2.10028" pop="257038"/>
    <City id="966" name="Hortaleza" country="ES" lat="40.47444" lng="-3.6411" pop="161661"/>
    <City id="967" name="Gijon" country="ES" lat="43.53573" lng="-5.66152" pop="271780"/>
    <City id="968" name="Getafe" country="ES" lat="40.30571" lng="-3.73295" pop="187525"/>
    <City id="969" name="Fuenlabrada" country="ES" lat="40.28419" lng="-3.79415" pop="190496"/>
    <City id="970" name="Fuencarral" country="ES" lat="40.5" lng="-3.68333" pop="238765"/>
    <City id="971" name="Ciudad Lineal" country="ES" lat="40.44505" lng="-3.65132" pop="228171"/>
    <City id="972" name="Chamartin" country="ES" lat="40.46206" lng="-3.6766" pop="140000"/>
    <City id="973" name="Burgos" country="ES" lat="42.34106" lng="-3.70184" pop="176418"/>
    <City id="974" name="Bilbao" country="ES" lat="43.26271" lng="-2.92528" pop="347342"/>
    <City id="975" name="Barcelona" country="ES" lat="41.38879" lng="2.15899" pop="1686208"/>
    <City id="976" name="Badalona" country="ES" lat="41.45004" lng="2.24741" pop="217741"/>
    <City id="977" name="Alcorcon" country="ES" lat="40.34582" lng="-3.82487" pop="172384"/>
    <City id="978" name="Alcala de Henares" country="ES" lat="40.48205" lng="-3.35996" pop="193751"/>
    <City id="979" name="Nou Barris" country="ES" lat="41.44163" lng="2.17727" pop="166310"/>
    <City id="980" name="Eixample" country="ES" lat="41.38896" lng="2.16179" pop="266477"/>
    <City id="981" name="Sarria-Sant Gervasi" country="ES" lat="41.40104" lng="2.1394" pop="147912"/>
    <City id="982" name="Horta-Guinardo" country="ES" lat="41.41849" lng="2.1677" pop="168092"/>
    <City id="983" name="Sants-Montjuic" country="ES" lat="41.37263" lng="2.1546" pop="183120"/>
    <City id="984" name="Sant Marti" country="ES" lat="41.41814" lng="2.19933" pop="235719"/>
    <City id="985" name="Arganzuela" country="ES" lat="40.40021" lng="-3.69618" pop="148797"/>
    <City id="986" name="San Blas-Canillejas" country="ES" lat="40.43893" lng="-3.61537" pop="157367"/>
    <City id="987" name="Latina" country="ES" lat="40.38897" lng="-3.74569" pop="256644"/>
    <City id="988" name="Usera" country="ES" lat="40.38866" lng="-3.70035" pop="141189"/>
    <City id="989" name="Chamberi" country="ES" lat="40.43404" lng="-3.70379" pop="145934"/>
    <City id="990" name="Carabanchel" country="ES" lat="40.39094" lng="-3.7242" pop="253678"/>
    <City id="991" name="Madrid Centro" country="ES" lat="40.41831" lng="-3.70275" pop="149718"/>
    <City id="992" name="Fuencarral-El Pardo" country="ES" lat="40.4984" lng="-3.7314" pop="220085"/>
    <City id="993" name="Warder" country="ET" lat="6.97444" lng="45.34083" pop="450400"/>
    <City id="994" name="Shashamane" country="ET" lat="7.2" lng="38.6" pop="208400"/>
    <City id="995" name="Nek'emte" country="ET" lat="9.08333" lng="36.55" pop="156000"/>
    <City id="996" name="Nazret" country="ET" lat="8.55" lng="39.26667" pop="456900"/>
    <City id="997" name="Mek'ele" country="ET" lat="13.49667" lng="39.47528" pop="457900"/>
    <City id="998" name="Kombolcha" country="ET" lat="11.08155" lng="39.74339" pop="132100"/>
    <City id="999" name="Jimma" country="ET" lat="7.67344" lng="36.83441" pop="250900"/>
    <City id="1000" name="Jijiga" country="ET" lat="9.35" lng="42.8" pop="483000"/>
    <City id="1001" name="Hosa'ina" country="ET" lat="7.54978" lng="37.85374" pop="188200"/>
    <City id="1002" name="Harar" country="ET" lat="9.31387" lng="42.11815" pop="157000"/>
    <City id="1003" name="Gonder" country="ET" lat="12.6" lng="37.46667" pop="466000"/>
    <City id="1004" name="Dire Dawa" country="ET" lat="9.59306" lng="41.86611" pop="343000"/>
    <City id="1005" name="Dila" country="ET" lat="6.41667" lng="38.31667" pop="158800"/>
    <City id="1006" name="Dessie" country="ET" lat="11.13333" lng="39.63333" pop="270400"/>
    <City id="1007" name="Bishoftu" country="ET" lat="8.75225" lng="38.97846" pop="207400"/>
    <City id="1008" name="Debre Mark'os" country="ET" lat="10.35" lng="37.73333" pop="140700"/>
    <City id="1009" name="Debre Birhan" country="ET" lat="9.67954" lng="39.53262" pop="146900"/>
    <City id="1010" name="Bahir Dar" country="ET" lat="11.59364" lng="37.39077" pop="350000"/>
    <City id="1011" name="Awasa" country="ET" lat="7.06205" lng="38.47635" pop="422200"/>
    <City id="1012" name="Asela" country="ET" lat="7.95" lng="39.13333" pop="139500"/>
    <City id="1013" name="Arba Minch" country="ET" lat="6.03333" lng="37.55" pop="201000"/>
    <City id="1014" name="Arabi" country="ET" lat="9.96278" lng="42.49278" pop="148933"/>
    <City id="1015" name="Addis Ababa" country="ET" lat="9.02497" lng="38.74689" pop="3860000"/>
    <City id="1016" name="Sodo" country="ET" lat="6.86" lng="37.76159" pop="204100"/>
    <City id="1017" name="Vantaa" country="FI" lat="60.29414" lng="25.04099" pop="252724"/>
    <City id="1018" name="Turku" country="FI" lat="60.45148" lng="22.26869" pop="206655"/>
    <City id="1019" name="Tampere" country="FI" lat="61.49911" lng="23.78712" pop="260646"/>
    <City id="1020" name="Oulu" country="FI" lat="65.01236" lng="25.46816" pop="216066"/>
    <City id="1021" name="Jyvaeskylae" country="FI" lat="62.24147" lng="25.72088" pop="148744"/>
    <City id="1022" name="Helsinki" country="FI" lat="60.16952" lng="24.93545" pop="658864"/>
    <City id="1023" name="Espoo" country="FI" lat="60.2052" lng="24.6522" pop="323910"/>
    <City id="1024" name="East Helsinki" country="FI" lat="60.21043" lng="25.08289" pop="170557"/>
    <City id="1025" name="Villeurbanne" country="FR" lat="45.76601" lng="4.8795" pop="131445"/>
    <City id="1026" name="Paris 15 Vaugirard" country="FR" lat="48.8412" lng="2.3003" pop="229713"/>
    <City id="1027" name="Tours" country="FR" lat="47.39484" lng="0.70398" pop="141621"/>
    <City id="1028" name="Toulouse" country="FR" lat="43.60426" lng="1.44367" pop="511684"/>
    <City id="1029" name="Toulon" country="FR" lat="43.12442" lng="5.92836" pop="168701"/>
    <City id="1030" name="Strasbourg" country="FR" lat="48.58392" lng="7.74553" pop="274845"/>
    <City id="1031" name="Saint-Etienne" country="FR" lat="45.43389" lng="4.39" pop="176280"/>
    <City id="1032" name="Paris 12 Reuilly" country="FR" lat="48.8412" lng="2.3876" pop="138024"/>
    <City id="1033" name="Rennes" country="FR" lat="48.11109" lng="-1.67431" pop="227830"/>
    <City id="1034" name="Reims" country="FR" lat="49.26526" lng="4.02853" pop="196565"/>
    <City id="1035" name="Paris 11 Popincourt" country="FR" lat="48.8574" lng="2.3795" pop="138170"/>
    <City id="1036" name="Paris 16 Passy" country="FR" lat="48.8637" lng="2.2769" pop="159386"/>
    <City id="1037" name="Paris" country="FR" lat="48.85341" lng="2.3488" pop="2138551"/>
    <City id="1038" name="Paris 14 Observatoire" country="FR" lat="48.8331" lng="2.3264" pop="136455"/>
    <City id="1039" name="Nimes" country="FR" lat="43.83665" lng="4.35788" pop="148236"/>
    <City id="1040" name="Nice" country="FR" lat="43.70313" lng="7.26608" pop="342669"/>
    <City id="1041" name="Nantes" country="FR" lat="47.21725" lng="-1.55336" pop="325070"/>
    <City id="1042" name="Montpellier" country="FR" lat="43.61093" lng="3.87635" pop="248252"/>
    <City id="1043" name="Paris 20 Menilmontant" country="FR" lat="48.8646" lng="2.3984" pop="185140"/>
    <City id="1044" name="Marseille" country="FR" lat="43.29695" lng="5.38107" pop="877215"/>
    <City id="1045" name="Lyon" country="FR" lat="45.74906" lng="4.84789" pop="520774"/>
    <City id="1046" name="Limoges" country="FR" lat="45.83362" lng="1.24759" pop="141176"/>
    <City id="1047" name="Lille" country="FR" lat="50.63391" lng="3.05512" pop="238695"/>
    <City id="1048" name="Le Mans" country="FR" lat="48.0021" lng="0.20251" pop="144515"/>
    <City id="1049" name="Le Havre" country="FR" lat="49.49346" lng="0.10785" pop="185972"/>
    <City id="1050" name="Grenoble" country="FR" lat="45.17869" lng="5.71479" pop="158552"/>
    <City id="1051" name="Paris 13 Gobelins" country="FR" lat="48.8322" lng="2.3561" pop="181271"/>
    <City id="1052" name="Dijon" country="FR" lat="47.31344" lng="5.01391" pop="159941"/>
    <City id="1053" name="Clermont-Ferrand" country="FR" lat="45.77969" lng="3.08682" pop="147865"/>
    <City id="1054" name="Paris 19 Buttes-Chaumont" country="FR" lat="48.8817" lng="2.3822" pop="178691"/>
    <City id="1055" name="Paris 18 Buttes-Montmartre" country="FR" lat="48.8925" lng="2.3444" pop="183127"/>
    <City id="1056" name="Bordeaux" country="FR" lat="44.84124" lng="-0.58046" pop="265328"/>
    <City id="1057" name="Paris 17 Batignolles-Monceau" country="FR" lat="48.8835" lng="2.3219" pop="159212"/>
    <City id="1058" name="Angers" country="FR" lat="47.47156" lng="-0.55202" pop="168279"/>
    <City id="1059" name="Amiens" country="FR" lat="49.9" lng="2.3" pop="143086"/>
    <City id="1060" name="Aix-en-Provence" country="FR" lat="43.5283" lng="5.44973" pop="146821"/>
    <City id="1061" name="Saint-Quentin-en-Yvelines" country="FR" lat="48.77186" lng="2.01891" pop="146598"/>
    <City id="1062" name="Cergy-Pontoise" country="FR" lat="49.03894" lng="2.07805" pop="183430"/>
    <City id="1063" name="Marne La Vallee" country="FR" lat="48.83584" lng="2.64241" pop="318325"/>
    <City id="1064" name="Paris 11e Arrondissement" country="FR" lat="48.85834" lng="2.37952" pop="144292"/>
    <City id="1065" name="Paris 12e Arrondissement" country="FR" lat="48.83523" lng="2.43505" pop="140311"/>
    <City id="1066" name="Paris 13e Arrondissement" country="FR" lat="48.8262" lng="2.35986" pop="177833"/>
    <City id="1067" name="Port-Gentil" country="GA" lat="-0.71933" lng="8.78151" pop="164018"/>
    <City id="1068" name="Libreville" country="GA" lat="0.39241" lng="9.45356" pop="846090"/>
    <City id="1069" name="Franceville" country="GA" lat="-1.63333" lng="13.58357" pop="132895"/>
    <City id="1070" name="York" country="GB" lat="53.95763" lng="-1.08271" pop="156135"/>
    <City id="1071" name="Wolverhampton" country="GB" lat="52.58547" lng="-2.12296" pop="263700"/>
    <City id="1072" name="Wigan" country="GB" lat="53.54296" lng="-2.63706" pop="175405"/>
    <City id="1073" name="City of Westminster" country="GB" lat="51.4975" lng="-0.1357" pop="247614"/>
    <City id="1074" name="Warrington" country="GB" lat="53.39254" lng="-2.58024" pop="172330"/>
    <City id="1075" name="Walsall" country="GB" lat="52.58528" lng="-1.98396" pop="172141"/>
    <City id="1076" name="Tottenham" country="GB" lat="51.60373" lng="-0.06794" pop="130000"/>
